codigo_estacion,institucion,fuente,nombre,altura,latitud,longitud,codigo_cuenca,nombre_cuenca,codigo_sub_cuenca,nombre_sub_cuenca,inicio_observaciones,fin_observaciones,cantidad_observaciones,inicio_automatica,GEOCODE
1000005,DGA,dga_web,Visviri,4080,-17.595,-69.4831,10,Altiplanicas,100,Entre Limite Peru-Bolivia Y Rio Lauca,1968-05-01,2018-03-09,17536,2016-08-01,cl143c6kyefugvwqm2w6i
1200002,DGA,dga_web,Villa Industrial (Tacora),4080,-17.7719,-69.7244,12,Rio Lluta,120,Rio Lluta Alto,1975-01-01,2017-03-31,14820,-,cl143c6ky6vkspptxphs)
1200003,DGA,dga_web,Humapalca,3980,-17.835,-69.7039,12,Rio Lluta,120,Rio Lluta Alto,1971-12-01,2017-03-31,16419,-,cl143c6ky6tc5pt7j0c8a
1201005,DGA,dga_web,Rio Caracarani En Humapalca,3908,-17.8428,-69.6994,12,Rio Lluta,120,Rio Lluta Alto,2013-06-01,2018-01-30,1489,2016-08-31,cl143c6ky6mzy6nm02pua
1201010,DGA,dga_web,Alcerreca,3990,-17.9931,-69.6594,12,Rio Lluta,120,Rio Lluta Alto,1971-01-01,2017-03-31,16589,-,cl143c6ky3wu7wd749t8a
1201003,DGA,dga_web,Rio Lluta En Alcerreca,3550,-18.0036,-69.6331,12,Rio Lluta,120,Rio Lluta Alto,2001-12-01,2018-03-09,5615,2017-04-01,cl143c6ky3x6w9rjtqgpa
1001005,DGA,dga_web,Caquena,4400,-18.0542,-69.2017,10,Altiplanicas,100,Entre Limite Peru-Bolivia Y Rio Lauca,1970-01-01,2017-03-31,15368,-,cl143c6kyc332fet0w06a
1110001,DGA,dga_web,Puquios,3750,-18.1747,-69.7439,11,Quebrada De La Concordia,111,Quebrada De La Concordia,1975-05-01,1981-05-31,2105,-,cl143c6ky2sgqh9q6gs6s
1202009,DGA,dga_web,Pacollo,4185,-18.1769,-69.5092,12,Rio Lluta,120,Rio Lluta Alto,1978-11-01,1999-05-31,7395,-,cl143c6ky8d6bzyhpzu6o
1020014,DGA,dga_web,Cotacotani,4550,-18.1836,-69.2328,10,Altiplanicas,102,Rio Lauca,1961-04-01,2017-03-31,19522,-,cl143c6kyb89f0yg68v9i
1020013,DGA,dga_web,Isla Blanca,4540,-18.1858,-69.2142,10,Altiplanicas,102,Rio Lauca,1970-01-01,1989-06-30,7026,-,cl143c6kyb8cru01pv6ba
1020002,DGA,dga_web,Rio Desaguadero Cotacotani,4500,-18.1936,-69.2458,10,Altiplanicas,102,Rio Lauca,2015-04-01,2017-03-31,577,-,cl143c6kyb2rbwxgjhtti
1202012,DGA,dga_web,Putre (Dcp),3560,-18.195,-69.5589,12,Rio Lluta,120,Rio Lluta Alto,2001-12-01,2018-03-09,5790,2016-08-31,cl143c6ky83psy2nhvkb)
1202010,DGA,dga_web,Putre,3545,-18.1992,-69.5603,12,Rio Lluta,120,Rio Lluta Alto,1968-01-01,2009-10-31,14940,-,cl143c6ky83ngtzx0zr4e
1020015,DGA,dga_web,Parinacota Conaf Dga,4420,-18.2014,-69.2683,10,Altiplanicas,102,Rio Lauca,1932-12-01,1989-01-31,16411,-,cl143c6ky8ry835t5gyma
1020017,DGA,dga_web,Parinacota Ex Endesa,4420,-18.2042,-69.2683,10,Altiplanicas,102,Rio Lauca,1983-01-01,2018-03-09,12100,2016-08-31,cl143c6ky8ry02ge5vnma
1202011,DGA,dga_web,Las Cuevas Conaf,4060,-18.2106,-69.5103,12,Rio Lluta,120,Rio Lluta Alto,1986-01-01,1988-01-31,730,-,cl143c6ky86kb5sd5etgf
1020016,DGA,dga_web,Chucuyo Reten,4400,-18.2164,-69.2956,10,Altiplanicas,102,Rio Lauca,1960-11-01,2017-03-31,19175,-,cl143c6ky8r5u3z2zt7dn
1020018,DGA,dga_web,Chucuyo (Ex. Endesa),4400,-18.2181,-69.3214,10,Altiplanicas,102,Rio Lauca,1984-12-01,1990-03-31,1843,-,cl143c6ky8qe3xyk18rm)
1010010,DGA,dga_web,Chungara Ajata,4585,-18.2353,-69.1833,10,Altiplanicas,101,Lago Chungara,1983-05-01,2018-03-09,12275,2013-04-01,cl143c6kyb38q78m8w3ea
1010009,DGA,dga_web,Chungara Guarderia,4600,-18.2669,-69.1167,10,Altiplanicas,101,Lago Chungara,1984-10-01,1987-12-31,824,-,cl143c6kyb54wg85j15ja
1010007,DGA,dga_web,Chungara Reten,4570,-18.2808,-69.1383,10,Altiplanicas,101,Lago Chungara,1962-07-01,2017-03-31,16986,-,cl143c6kyb48p48gfuren
1300005,DGA,dga_web,Portezuelo Chapiquia,4375,-18.3272,-69.4661,13,Rio San Jose,130,Azapa Alto,1976-04-01,1979-12-31,488,-,cl143c6kwxer8k6d39dma
1010008,DGA,dga_web,Missituni,4720,-18.3478,-69.1342,10,Altiplanicas,101,Lago Chungara,1967-09-01,1974-02-28,363,-,cl143c6kwzdgfh26hjv8i
1300004,DGA,dga_web,Murmuntane,3550,-18.3519,-69.5519,13,Rio San Jose,130,Azapa Alto,1970-06-01,1987-12-31,3933,-,cl143c6kwx971u7mbkq9e
1300006,DGA,dga_web,Central Chapiquia,3350,-18.3722,-69.5481,13,Rio San Jose,130,Azapa Alto,1963-01-01,2018-03-09,19275,2016-08-01,cl143c6kwx3rkw5v9ynha
1211006,DGA,dga_web,Lluta,290,-18.4103,-70.1692,12,Rio Lluta,121,Rio Lluta Bajo,1966-09-01,1993-12-31,5292,-,cl143c6kwp72825pk4z4a
1300007,DGA,dga_web,Belen,3240,-18.4669,-69.5167,13,Rio San Jose,130,Azapa Alto,1938-01-01,2018-03-09,23474,2006-08-03,cl143c6kwwfn5qx2r6x4n
1310018,DGA,dga_web,Arica Oficina,20,-18.4775,-70.3208,13,Rio San Jose,131,Rio San Jose,1974-09-01,2017-03-31,15307,-,cl143c6ktyzu3by8754da
1310021,DGA,dga_web,U. Del Norte,55,-18.4833,-70.2936,13,Rio San Jose,131,Rio San Jose,1980-12-01,1984-12-31,1191,-,cl143c6kwnb7jybrhugce
1021002,DGA,dga_web,Rio Guallatire En Guallatire,4280,-18.4931,-69.1494,10,Altiplanicas,102,Rio Lauca,2015-06-01,2018-03-09,982,2016-08-31,cl143c6kwyf3qvyhq1xve
1021007,DGA,dga_web,Guallatire,4240,-18.4983,-69.1547,10,Altiplanicas,102,Rio Lauca,1969-01-01,2017-03-31,16846,-,cl143c6kwyf27pddyq29e
1310022,DGA,dga_web,El Buitre Aerodromo,110,-18.5119,-70.2842,13,Rio San Jose,131,Rio San Jose,1985-09-01,2012-03-31,9676,-,cl143c6kwn8wh877wp0ko
1300009,DGA,dga_web,Rio Ticnamar En Angostura,3010,-18.5133,-69.5656,13,Rio San Jose,130,Azapa Alto,2006-01-01,2018-03-09,4042,2016-08-31,cl143c6kww8vzbhn9pbsa
1310019,DGA,dga_web,Azapa,365,-18.5156,-70.1806,13,Rio San Jose,131,Rio San Jose,1966-08-01,2017-03-31,15763,-,cl143c6kwnej24c3zzb4a
1300008,DGA,dga_web,Tignamar,3230,-18.5811,-69.4939,13,Rio San Jose,130,Azapa Alto,1968-01-01,2017-03-31,15980,-,cl143c6kww69kj4zbmh7r
1030003,DGA,dga_web,Chilcaya,4270,-18.7939,-69.0844,10,Altiplanicas,103,Salar De Surire,1971-11-01,2017-03-31,11525,-,cl143c6kwv5fwm8g1ex7a
1410011,DGA,dga_web,Chaca,350,-18.8169,-70.15,14,Costeras R. San Jose-Q.Camarones,141,Quebrada Vitor,1968-12-01,1983-12-31,5478,-,cl143c6kwhgwqrde8g34a
1410012,DGA,dga_web,Codpa,1870,-18.8322,-69.7439,14,Costeras R. San Jose-Q.Camarones,141,Quebrada Vitor,1961-06-01,2017-03-31,19694,-,cl143c6kwkugwn3r6zh4a
1502007,DGA,dga_web,Esquia,2170,-18.9417,-69.5328,15,Q. Rio Camarones,150,Rio Camarones Antes Junta Quebrada De Chiza,1975-07-01,2017-03-31,15167,-,cl143c6kws1xzb874qq5a
1502008,DGA,dga_web,Rio Camarones En Chilpe,1565,-18.9431,-69.6197,15,Q. Rio Camarones,150,Rio Camarones Antes Junta Quebrada De Chiza,2005-12-01,2018-03-09,4435,2016-08-31,cl143c6kwkpz82rqjngqe
1501001,DGA,dga_web,Caritaya Embalse,3600,-19.0247,-69.3361,15,Q. Rio Camarones,150,Rio Camarones Antes Junta Quebrada De Chiza,1932-01-01,1965-07-31,1336,-,cl143c6kwey0wvpfbs5ge
1610003,DGA,dga_web,Pumire,4150,-19.0953,-69.1108,16,Costeras R.Camarones-Pampa Del Tamarugal,161,Quebrada De Camina,1962-01-01,1991-10-31,10379,-,cl143c6kwg77g1cdh6w5e
1502006,DGA,dga_web,Cuya,200,-19.1117,-70.1269,15,Q. Rio Camarones,150,Rio Camarones Antes Junta Quebrada De Chiza,1965-11-01,1979-04-30,4502,-,cl143c6kw5k0z4kbcku3a
1610004,DGA,dga_web,Q. Camia 3 Km. A. Arriba De Tarcavire,3848,-19.1181,-69.2447,16,Costeras R.Camarones-Pampa Del Tamarugal,161,Quebrada De Camina,2006-08-01,2018-03-09,3998,2016-05-01,cl143c6kwg0r9scxc7kze
1041004,DGA,dga_web,Enquelca (Ex Caraguano),3900,-19.2289,-68.8044,10,Altiplanicas,104,Entre Estero Sencata Y Rio Sacaya,1985-01-01,2017-03-31,10044,-,cl143c6kx4d76pt30zeq)
1041003,DGA,dga_web,Colchane (T. Isluga),3700,-19.2764,-68.6378,10,Altiplanicas,104,Entre Estero Sencata Y Rio Sacaya,1975-12-01,2018-03-09,14547,2012-04-09,cl143c6kx4q4g6z6dg4m)
1611002,DGA,dga_web,Apamilca (Camia),2600,-19.2967,-69.3867,16,Costeras R.Camarones-Pampa Del Tamarugal,161,Quebrada De Camina,1986-01-01,1990-04-30,1339,-,cl143c6kwdjp4hsdqsbg)
1611001,DGA,dga_web,Camia,2500,-19.3136,-69.4172,16,Costeras R.Camarones-Pampa Del Tamarugal,161,Quebrada De Camina,1971-01-01,2017-03-31,14389,-,cl143c6kwdhk5fnh0064a
1720004,DGA,dga_web,Puchultiza,4300,-19.4136,-68.9422,17,Pampa Del Tamarugal,172,Quebrada De Aroma,1982-09-01,1988-12-31,2314,-,cl143c6kwcx1vgd69tp9a
1720006,DGA,dga_web,Chiapa,3155,-19.5369,-69.205,17,Pampa Del Tamarugal,172,Quebrada De Aroma,2012-02-01,2017-01-31,1607,-,cl143c6kwbc5qmq9ggg5a
1730020,DGA,dga_web,Chuzmiza,3400,-19.6831,-69.1833,17,Pampa Del Tamarugal,173,Quebrada De Tarapaca,1988-12-01,2017-03-31,9771,-,cl143c6kwb18y38k0x17a
1730015,DGA,dga_web,Pampa Lirima Dcp,5100,-19.7653,-68.8581,17,Pampa Del Tamarugal,173,Quebrada De Tarapaca,1982-10-01,1984-11-30,731,-,cl143c6krp91g4ccp0zgp
1730007,DGA,dga_web,Q. Tarapaca En Sibaya,2830,-19.7831,-69.1433,17,Pampa Del Tamarugal,173,Quebrada De Tarapaca,2004-02-06,2018-03-09,4858,2006-02-08,cl143c6kqz6we7h6feyoa
1730019,DGA,dga_web,Mocha,2150,-19.8097,-69.2731,17,Pampa Del Tamarugal,173,Quebrada De Tarapaca,1988-01-01,2017-03-31,9632,-,cl143c6kqxr9ub5u2bd4a
1730016,DGA,dga_web,Pampa Lirima,4076,-19.8472,-68.8544,17,Pampa Del Tamarugal,173,Quebrada De Tarapaca,1977-10-01,1989-05-31,4141,-,cl143c6krp14vv8jy0mca
1042001,DGA,dga_web,Cancosa,3930,-19.8553,-68.6017,10,Altiplanicas,104,Entre Estero Sencata Y Rio Sacaya,1976-04-01,2012-04-30,12252,-,cl143c6krpncmy2xbfn6a
1044001,DGA,dga_web,Rio Cancosa En El Tambo,4000,-19.8586,-68.5858,10,Altiplanicas,104,Entre Estero Sencata Y Rio Sacaya,2012-05-01,2017-03-26,1529,-,cl143c6krpp2c7708udqo
1730017,DGA,dga_web,Poroma,2880,-19.8719,-69.1831,17,Pampa Del Tamarugal,173,Quebrada De Tarapaca,1968-04-01,2017-03-31,15060,-,cl143c6kqycwqmucmej5a
1730018,DGA,dga_web,Lagunillas (Pampa Lirima),4020,-19.9333,-68.8369,17,Pampa Del Tamarugal,173,Quebrada De Tarapaca,1982-10-01,2017-03-31,11515,-,cl143c6krn9e62pgx1gs)
1042002,DGA,dga_web,Huaytani,3950,-20.0003,-68.5706,10,Altiplanicas,104,Entre Estero Sencata Y Rio Sacaya,1982-09-01,2016-11-30,11618,-,cl143c6krnpxh3v1yg27i
1740001,DGA,dga_web,Parca,2650,-20.0122,-69.2033,17,Pampa Del Tamarugal,174,Quebrada De Quipisca,1977-12-01,2016-11-30,13818,-,cl143c6kqy1hzsqpx3n4a
1050007,DGA,dga_web,Coyacagua,4013,-20.0531,-68.8075,10,Altiplanicas,105,Salar Del Huasco,1961-11-01,2017-03-31,19622,-,cl143c6krjfjryjp1r48a
1740002,DGA,dga_web,Cerro Colorado,2510,-20.065,-69.2703,17,Pampa Del Tamarugal,174,Quebrada De Quipisca,1993-04-01,2017-03-31,8515,-,cl143c6kqtzeqbvhbsueo
1750003,DGA,dga_web,Mamia,2730,-20.0756,-69.2147,17,Pampa Del Tamarugal,175,Quebradas Juan Morales Sagasca  Y El Tambillo,1986-01-01,2017-03-31,10954,-,cl143c6kqvbcr7hsgj24a
1050009,DGA,dga_web,Diablo Marca,4585,-20.1044,-68.9681,10,Altiplanicas,105,Salar Del Huasco,2011-12-01,2016-12-30,1397,-,cl143c6kqvws4gqu1q9ca
1050004,DGA,dga_web,Rio Collacagua En Peablanca,3853,-20.1119,-68.8408,10,Altiplanicas,105,Salar Del Huasco,2014-10-01,2016-10-18,612,-,cl143c6krj96xxtn553ua
1700010,DGA,dga_web,Huara En Fuerte Baquedano,1100,-20.1308,-69.7497,17,Pampa Del Tamarugal,170,Pampa Del Tamarugal,1993-02-01,2017-03-31,7541,-,cl143c6kqmkz3cd4yh7so
1051004,DGA,dga_web,Altos Del Huasco,4044,-20.1703,-68.7703,10,Altiplanicas,105,Salar Del Huasco,2011-12-01,2016-12-30,1449,-,cl143c6krj704grze9vgo
1750002,DGA,dga_web,Sagasca,1822,-20.2033,-69.3397,17,Pampa Del Tamarugal,175,Quebradas Juan Morales Sagasca  Y El Tambillo,1977-09-01,1998-11-30,6236,-,cl143c6kqtn4h75zum06a
1820001,DGA,dga_web,Iquique,50,-20.2153,-70.1361,18,Costeras Tilviche-Loa,182,Pampas El Carmen Y De La Union,1984-08-01,2017-03-31,11747,-,cl143c6kqhupbmq6vq76e
1051003,DGA,dga_web,Salar Huasco,3800,-20.2761,-68.8861,10,Altiplanicas,105,Salar Del Huasco,1981-03-01,1982-06-30,457,-,cl143c6krh8kyejt0bjco
1050010,DGA,dga_web,Sillillica,3840,-20.3219,-68.8936,10,Altiplanicas,105,Salar Del Huasco,2011-12-01,2016-02-28,1427,-,cl143c6krh2k90qg2889a
1700008,DGA,dga_web,Esmeralda,1115,-20.4842,-69.3814,17,Pampa Del Tamarugal,170,Pampa Del Tamarugal,1966-09-01,1972-12-31,1069,-,cl143c6kqemnynbhq7r8a
1700009,DGA,dga_web,Coposa,3760,-20.7086,-68.6942,17,Pampa Del Tamarugal,170,Pampa Del Tamarugal,1982-12-01,2017-02-27,7910,-,cl143c6kr4hy47tj5vn5a
2113005,DGA,dga_web,Guatacondo Dga,2460,-20.9272,-69.0456,21,Rio Loa,211,Loa Medio (Entre R.  Salado Y Q. De Barrera),1977-09-01,2017-03-31,14303,-,cl143c6kqbuy6d0zjj7ea
1770001,DGA,dga_web,Copaquire,3540,-20.9303,-68.8922,17,Pampa Del Tamarugal,177,Quebrada De Chacarilla,1977-09-01,2011-04-30,10587,-,cl143c6kr0bmf0pmk3n8e
2113001,DGA,dga_web,Rio Huatacondo En Copaquire,3540,-20.9333,-68.8833,21,Rio Loa,211,Loa Medio (Entre R.  Salado Y Q. De Barrera),2011-06-01,2017-03-31,1974,-,cl143c6kr0bt0wwy0c8ue
1080001,DGA,dga_web,Ujina,4300,-20.9714,-68.6275,10,Altiplanicas,108,Salar De Michincha,1974-01-01,2017-02-27,11990,-,cl143c6kr0wq6bxren44a
1080002,DGA,dga_web,Collahuasi,4250,-20.9961,-68.8019,10,Altiplanicas,108,Salar De Michincha,1971-11-01,1991-08-31,6938,-,cl143c6kr0d3gbze2bz9i
2105031,DGA,dga_web,Amincha,3860,-21.2006,-68.3394,21,Rio Loa,210,Rio Loa Alto (Bajo Junta Rio Salado),1978-12-01,1981-11-30,273,-,cl143c6kprkusc899yz6a
2000001,DGA,dga_web,Ollague,3700,-21.2233,-68.2494,20,Fronterizas Salar Michincha-R.Loa,200,Salar De Ollague,1971-11-01,2018-02-01,11001,2017-08-08,cl143c6kprqbqm3dnu56e
2020001,DGA,dga_web,Cebollar,3730,-21.5311,-68.3386,20,Fronterizas Salar Michincha-R.Loa,202,Salar De Ascotan,1900-02-01,2006-12-31,9675,-,cl143c6kpmsbmk70n987r
2101003,DGA,dga_web,Lequena,3320,-21.6553,-68.6611,21,Rio Loa,210,Rio Loa Alto (Bajo Junta Rio Salado),1973-11-01,2017-03-31,15731,-,cl143c6kphv9f88rmpf6a
2101001,DGA,dga_web,Rio Loa Antes Represa Lequena,3315,-21.6558,-68.6622,21,Rio Loa,210,Rio Loa Alto (Bajo Junta Rio Salado),2001-12-01,2018-03-09,5943,2012-01-23,cl143c6kphv99tyf2c5wa
2112008,DGA,dga_web,Quillagua,802,-21.6603,-69.5358,21,Rio Loa,211,Loa Medio (Entre R.  Salado Y Q. De Barrera),1900-02-01,2017-04-30,15822,-,cl143c6knsc8ved7mmx8a
2020002,DGA,dga_web,Ascotan,3970,-21.7253,-68.2756,20,Fronterizas Salar Michincha-R.Loa,202,Salar De Ascotan,1974-08-01,2017-04-30,13864,-,cl143c6kpkqm50znw9x6n
2111004,DGA,dga_web,Tranque Sloman,985,-21.8506,-69.5139,21,Rio Loa,211,Loa Medio (Entre R.  Salado Y Q. De Barrera),1996-03-01,2004-12-31,3228,-,cl143c6knednjx08zmfen
2102005,DGA,dga_web,Quinchamale,3080,-21.9053,-68.5964,21,Rio Loa,210,Rio Loa Alto (Bajo Junta Rio Salado),1995-06-01,2017-03-31,7916,-,cl143c6kp5rh38kh0gsbe
2103007,DGA,dga_web,San Pedro De Conchi,3217,-21.9333,-68.5364,21,Rio Loa,210,Rio Loa Alto (Bajo Junta Rio Salado),1970-02-01,1993-04-30,8247,-,cl143c6kp70rjm60s1hki
2103008,DGA,dga_web,Parshall N 2,3318,-21.9428,-68.5175,21,Rio Loa,210,Rio Loa Alto (Bajo Junta Rio Salado),1969-04-01,2015-12-31,16201,-,cl143c6kp70v7jft952c2
2104007,DGA,dga_web,Conchi Viejo,3491,-21.95,-68.7239,21,Rio Loa,210,Rio Loa Alto (Bajo Junta Rio Salado),1900-02-01,2017-04-30,14261,-,cl143c6kp5hhhgcp6jbco
2103009,DGA,dga_web,Ojos San Pedro,3800,-21.9706,-68.3128,21,Rio Loa,210,Rio Loa Alto (Bajo Junta Rio Salado),1900-02-01,2017-04-30,14762,-,cl143c6kp7j825urk6heo
2103014,DGA,dga_web,Rio Siloli Antes B.T. Fcab,4000,-22.0103,-68.0269,21,Rio Loa,210,Rio Loa Alto (Bajo Junta Rio Salado),2012-10-01,2018-03-09,1549,2012-10-25,cl143c6kpdu10kdqdyktb
2103012,DGA,dga_web,Silala,4305,-22.0139,-68.0289,21,Rio Loa,210,Rio Loa Alto (Bajo Junta Rio Salado),2001-01-01,2017-04-30,5923,-,cl143c6kpdgbqzexxe65a
2104008,DGA,dga_web,Conchi Embalse,3010,-22.025,-68.6242,21,Rio Loa,210,Rio Loa Alto (Bajo Junta Rio Salado),1967-09-01,2017-04-30,15338,-,cl143c6kp4wqmrh4rtree
2104009,DGA,dga_web,Conchi Muro Embalse,3000,-22.0267,-68.6208,21,Rio Loa,210,Rio Loa Alto (Bajo Junta Rio Salado),1978-02-01,1991-12-31,4805,-,cl143c6kp4wqpv5mwbqke
2103010,DGA,dga_web,Inacaliri,4040,-22.0278,-68.0661,21,Rio Loa,210,Rio Loa Alto (Bajo Junta Rio Salado),1900-02-01,2017-04-30,17271,-,cl143c6kpdejgybbmnx8i
2104002,DGA,dga_web,Rio Loa En Salida Embalse Conchi,2950,-22.0278,-68.6208,21,Rio Loa,210,Rio Loa Alto (Bajo Junta Rio Salado),2012-02-01,2017-05-31,1857,-,cl143c6kp4wmzyg2qywzi
2210002,DGA,dga_web,Tocopilla,150,-22.0797,-70.1897,22,Costeras R.Loa-Q.Caracoles,221,Costeras Entre Q. Iquine Y Q.Tocopilla (Inclusive),1900-02-01,2017-10-18,8569,2017-06-01,cl143c6kn46u92mmw748a
2105014,DGA,dga_web,Cupo,3370,-22.1147,-68.3167,21,Rio Loa,210,Rio Loa Alto (Bajo Junta Rio Salado),1900-02-01,2017-03-31,13568,-,cl143c6kp6jqjk990k43o
2105016,DGA,dga_web,Linzor,4100,-22.2297,-68.0228,21,Rio Loa,210,Rio Loa Alto (Bajo Junta Rio Salado),1973-11-01,2018-03-09,14489,2014-11-01,cl143c6kp9s15q9gs465r
2105015,DGA,dga_web,Turi,3070,-22.2408,-68.2881,21,Rio Loa,210,Rio Loa Alto (Bajo Junta Rio Salado),1981-01-01,1993-05-31,4411,-,cl143c6kp3qp4jgyqh13i
2105017,DGA,dga_web,Toconce,3310,-22.2592,-68.1733,21,Rio Loa,210,Rio Loa Alto (Bajo Junta Rio Salado),1972-03-01,2017-03-31,16333,-,cl143c6kp92evdybr5u6e
2105018,DGA,dga_web,Ayquina,3031,-22.2753,-68.3183,21,Rio Loa,210,Rio Loa Alto (Bajo Junta Rio Salado),1967-09-01,2017-03-31,17499,-,cl143c6kp3m2uhupp796a
2105001,DGA,dga_web,Rio Salado A. J. Curti,3080,-22.2792,-68.2428,21,Rio Loa,210,Rio Loa Alto (Bajo Junta Rio Salado),2012-04-01,2013-07-31,485,-,cl143c6kp3r05n7805mpi
2105019,DGA,dga_web,Sifon Ayquina,3000,-22.2833,-68.3497,21,Rio Loa,210,Rio Loa Alto (Bajo Junta Rio Salado),1975-07-01,1977-12-31,915,-,cl143c6kp3hxmq2eccbda
2105020,DGA,dga_web,Salado Embalse,3200,-22.2856,-68.2028,21,Rio Loa,210,Rio Loa Alto (Bajo Junta Rio Salado),1975-10-01,2018-03-01,14814,2007-02-12,cl143c6kp90p00zx43fee
2105002,DGA,dga_web,Rio Salado En Sifon Ayquina,2980,-22.2894,-68.3447,21,Rio Loa,210,Rio Loa Alto (Bajo Junta Rio Salado),2001-11-01,2018-02-15,5599,2015-02-01,cl143c6kp3hy2fv4djbua
2105021,DGA,dga_web,Caspana,3260,-22.3367,-68.2122,21,Rio Loa,210,Rio Loa Alto (Bajo Junta Rio Salado),1971-01-01,2008-12-31,13436,-,cl143c6kp2zv9rk934q6a
2104010,DGA,dga_web,Chiu-Chiu,2524,-22.3378,-68.6367,21,Rio Loa,210,Rio Loa Alto (Bajo Junta Rio Salado),1974-08-01,2017-04-30,15367,-,cl143c6kp0yjs2bur098u
2105022,DGA,dga_web,El Tatio,4370,-22.3711,-68.0133,21,Rio Loa,210,Rio Loa Alto (Bajo Junta Rio Salado),1977-06-01,2018-03-09,14107,2014-11-03,cl143c6kp8sr6nzhxy27o
2112009,DGA,dga_web,Coya Sur,1250,-22.3939,-69.6225,21,Rio Loa,211,Loa Medio (Entre R.  Salado Y Q. De Barrera),1974-06-01,1991-06-30,6117,-,cl143c6kn2xeq6n4mr17r
2110013,DGA,dga_web,Calama,2300,-22.4494,-68.9044,21,Rio Loa,211,Loa Medio (Entre R.  Salado Y Q. De Barrera),1900-02-01,2018-03-09,17736,2014-01-01,cl143c6kp0211qg0e2y5a
2510007,DGA,dga_web,Rio Grande,3250,-22.6522,-68.1658,25,Salar De Atacama,251,Rio San Pedro,1900-02-01,2017-04-30,14605,-,cl143c67zx0u71meze99e
2700001,DGA,dga_web,Sierra Gorda,1616,-22.8892,-69.3219,27,Quebrada Caracoles,270,Quebrada Caracoles Bajo Junta Quebrada El Buitre,1994-09-01,2018-03-09,8282,2016-07-02,cl143c67yty91kdxugsca
2510006,DGA,dga_web,San Pedro De Atacama,2450,-22.9053,-68.2003,25,Salar De Atacama,251,Rio San Pedro,1959-01-01,2016-12-31,12781,-,cl143c67zt8n4ncyd7rma
2500016,DGA,dga_web,Toconao Experimental,2500,-23.1889,-67.9978,25,Salar De Atacama,250,Salar De Atacama,1975-11-01,2009-02-28,11678,-,cl143c67zshdtdb7trmml
2500015,DGA,dga_web,Toconao Reten,2460,-23.1936,-68.0094,25,Salar De Atacama,250,Salar De Atacama,1975-01-01,1991-01-31,5875,-,cl143c67zsh3tp6peffdn
2500021,DGA,dga_web,Talabre,3300,-23.3125,-67.8878,25,Salar De Atacama,250,Salar De Atacama,1900-02-01,2017-04-30,7817,-,cl143c67zerhjdge52e6e
2710002,DGA,dga_web,Baquedano,1032,-23.3336,-69.8397,27,Quebrada Caracoles,271,Q. Caracoles Entre Quebrada El Buitre Y  Salar Del Carmen,1900-02-01,2018-03-09,13460,2016-06-24,cl143c67y76b0rcj9nr8o
2500017,DGA,dga_web,Camar,2700,-23.4069,-67.9631,25,Salar De Atacama,250,Salar De Atacama,1900-02-01,2017-04-30,14028,-,cl143c67zdv6yubvxdg4r
2240000,DGA,dga_web,Liceo CientÍFico Humanista La Chimba,0,-23.5544,-70.3933,22,Costeras R.Loa-Q.Caracoles,224,Costeras Entre Qs. Chacaya Y Caracoles (Incl.),2015-04-21,2016-07-06,435,2015-04-21,cl143c67vfn0j1tjx5hza
2500019,DGA,dga_web,Socaire,3251,-23.5869,-67.8925,25,Salar De Atacama,250,Salar De Atacama,1900-02-01,2016-12-31,15153,-,cl143c67z9z44hq54uc6e
2710003,DGA,dga_web,Antofagasta,50,-23.5975,-70.3867,27,Quebrada Caracoles,271,Q. Caracoles Entre Quebrada El Buitre Y  Salar Del Carmen,1900-02-01,2017-09-27,14541,2017-05-01,cl143c67vcy21yx50mrba
2240001,DGA,dga_web,Escuela FundaciÓN Minera Escondida,0,-23.6144,-70.3703,22,Costeras R.Loa-Q.Caracoles,224,Costeras Entre Qs. Chacaya Y Caracoles (Incl.),2015-05-01,2017-05-31,750,-,cl143c67vcwtjujhv1nza
2500020,DGA,dga_web,Peine,2460,-23.6842,-68.0581,25,Salar De Atacama,250,Salar De Atacama,1974-11-01,2017-04-30,15368,-,cl143c67z9723te347z4e
2900000,DGA,dga_web,Universidad De Antofagasta,0,-23.7017,-70.4208,29,Qs.Entre Q. La Negra Y Q. Pan De Azucar,290,Quebradas Entre Quebrada La Negra Y Q. De Remedios,2015-04-22,2017-12-24,805,2015-04-22,cl143c67vcjt1ps6vsmta
2640001,DGA,dga_web,Imilac,3000,-24.1631,-68.7828,26,Endorreicas Salar Atacama-Vertiente Pacifico,264,Pampa Colorado,1972-11-01,1977-04-30,1642,-,cl143c67xndc1zsxdyp5c
2660001,DGA,dga_web,Monturaqui,3430,-24.3414,-68.4353,26,Endorreicas Salar Atacama-Vertiente Pacifico,266,Pampa De Socompa,1974-11-01,1979-12-31,1887,-,cl143c67xmd8ycjfjv09i
2810001,DGA,dga_web,Cachinal De La Sierra,2640,-24.9611,-69.52,28,Quebrada La Negra,281,Quebrada Grande,1986-11-01,1986-12-31,61,-,cl143c67w9fpcp49dydoa
2941001,DGA,dga_web,Vaquillas,3250,-25.3958,-69.2986,29,Costeras Entre Q. La Negra Y Q. Pan De Azucar,294,Quebrada De Taltal,1987-01-01,1988-02-29,363,-,cl143c67qxx0f69xf8h8s
2942001,DGA,dga_web,Aguas Verdes,1560,-25.4,-69.9633,29,Costeras Entre Q. La Negra Y Q. Pan De Azucar,294,Quebrada De Taltal,1987-09-01,2017-03-31,10485,-,cl143c67qpxbn62by6hcs
2943002,DGA,dga_web,Tal-Tal (Dcp),0,-25.4033,-70.4797,29,Qs.Entre Q. La Negra Y Q. Pan De Azucar,294,Quebrada De Taltal,2015-04-21,2018-03-09,1045,2015-04-21,cl143c67mzkpqppcwsud)
2943001,DGA,dga_web,Tal-Tal,9,-25.4047,-70.4819,29,Costeras Entre Q. La Negra Y Q. Pan De Azucar,294,Quebrada De Taltal,1900-02-01,2016-06-30,12476,-,cl143c67mzkphwuswjw6l
2960001,DGA,dga_web,Sierra Overa,1900,-25.78,-69.8881,29,Costeras Entre Q. La Negra Y Q. Pan De Azucar,296,Quebrada De La Cachina,1986-12-01,1988-06-30,578,-,cl143c67qm3dvh95xtfca
3210001,DGA,dga_web,Las Vegas,2250,-26.6781,-69.6656,32,Rio Salado,321,Quebrada Del Chanaral,1984-01-01,2018-03-09,12159,2017-01-01,cl143c67q2nxrhccewe8s
3340001,DGA,dga_web,Caldera,15,-27.0692,-70.8156,33,Costeras E Islas R.Salado-R.Copiapo,334,Costeras Entre Quebrada Del Morado Y Rio Copiapo,1992-03-01,2017-06-20,9211,2016-10-02,cl143c67jwh81wkzmkq6a
5610000,DGA,dga_web,Poike,32,-27.1125,-90.2753,56,Islas Del Pacifico,561,Isla De Pascua,2010-01-01,2010-04-30,120,-,cl143c3gpvc8rd1p9my4e
3441001,DGA,dga_web,Pastos Grandes,2260,-27.1142,-69.5642,34,Rio Copiapo,344,Quebrada Paipote,1966-08-01,2017-05-31,18075,-,cl143c67ntc00bkdubves
3450004,DGA,dga_web,Copiapo,385,-27.3772,-70.3308,34,Rio Copiapo,345,R.  Copiapo Bajo,1971-01-01,2018-03-09,17070,2013-11-30,cl143c67jur84sm848b6o
3431004,DGA,dga_web,Elibor Campamento,750,-27.7167,-70.1953,34,Rio Copiapo,343,R.  Copiapo Medio,1978-01-01,2017-05-31,14365,-,cl143c67n46dm6dbwskho
3431001,DGA,dga_web,Rio Copiapo En La Puerta,915,-27.8044,-70.1269,34,Rio Copiapo,343,R.  Copiapo Medio,2010-10-01,2017-05-31,2268,-,cl143c67n1u4r5su1mkra
3430007,DGA,dga_web,Los Loros,940,-27.8317,-70.1119,34,Rio Copiapo,343,R.  Copiapo Medio,1967-09-01,2017-05-31,17045,-,cl143c67n1st6hd744w8s
3404002,DGA,dga_web,Jorquera En La Guardia,2000,-27.8364,-69.755,34,Rio Copiapo,340,Rio Jorquera,1966-10-01,2017-05-31,18139,-,cl143c67n3sstcnwynhpa
3604001,DGA,dga_web,El Totoral,150,-27.9022,-70.9575,36,Q.Totoral Y Costeras Hasta Q.Carrizal,360,Quebrada Totoral,1987-02-01,2017-05-31,11047,-,cl143c67j932d3fkvju9l
3430006,DGA,dga_web,Lautaro Embalse,1110,-27.9783,-70.0033,34,Rio Copiapo,343,R.  Copiapo Medio,1930-05-01,2018-03-09,21396,2018-01-09,cl143c67n0z49nsfu5xfe
3430003,DGA,dga_web,Rio Copiapo En Pastillo,1300,-28.0003,-69.9747,34,Rio Copiapo,343,R.  Copiapo Medio,2013-04-02,2018-03-09,1611,2013-04-02,cl143c67n0xwtyrmcbmqo
3414001,DGA,dga_web,Rio Pulido En Vertedero,1310,-28.0858,-69.9408,34,Rio Copiapo,341,Rio Pulido,2016-02-01,2018-03-09,637,2016-08-12,cl143c67n20rnsm5rt5qo
3701001,DGA,dga_web,Canto De Agua,330,-28.0992,-70.7811,37,Quebrada Carrizal Y Costeras Hasta R. Huasco,370,Quebradas Carrizal Y Carrizalillo,1987-02-01,2017-05-31,10652,-,cl143c67j8jkdy2c6wbda
3421004,DGA,dga_web,Manflas,1410,-28.1336,-69.975,34,Rio Copiapo,342,Rio Manflas,1966-07-01,2017-05-31,18050,-,cl143c66ypzwmvbkf5p6s
3414002,DGA,dga_web,Iglesia Colorada,1550,-28.1572,-69.8808,34,Rio Copiapo,341,Rio Pulido,1988-06-01,2017-05-31,10530,-,cl143c66yrcf4k7m6zega
3412001,DGA,dga_web,Torin En El Potro,2800,-28.2767,-69.7481,34,Rio Copiapo,341,Rio Pulido,1990-09-01,1992-08-31,397,-,cl143c66yrhu6ur3p4kho
3826002,DGA,dga_web,Huasco,15,-28.4669,-71.2214,38,Rio Huasco,382,Rio Huasco,1976-01-01,1992-12-31,6118,-,cl143c66vq53f0m15p15o
3826003,DGA,dga_web,Huasco Bajo,50,-28.4725,-71.1931,38,Rio Huasco,382,Rio Huasco,1993-01-01,2017-05-31,8794,-,cl143c66vq5bwz8t31cbo
3825004,DGA,dga_web,Freirina,100,-28.5072,-71.0806,38,Rio Huasco,382,Rio Huasco,1987-05-01,2017-05-31,10258,-,cl143c66vmyd2ttbz0h7a
3823004,DGA,dga_web,La Compaia (Vallenar),430,-28.5761,-70.8081,38,Rio Huasco,382,Rio Huasco,1993-02-01,2017-05-31,8791,-,cl143c66vtktzh5svgeo)
3823003,DGA,dga_web,Vallenar Dga,420,-28.5861,-70.7397,38,Rio Huasco,382,Rio Huasco,1972-01-01,2018-03-09,16513,2016-08-02,cl143c66vtqk0cvs8x6ca
3823002,DGA,dga_web,Vallenar Dmc,535,-28.5936,-70.7572,38,Rio Huasco,382,Rio Huasco,1978-01-01,1983-07-31,1916,-,cl143c66vtmfsnjwxshcc
3820004,DGA,dga_web,Santa Juana,560,-28.6672,-70.6625,38,Rio Huasco,382,Rio Huasco,1961-08-01,2018-03-09,19848,2017-06-01,cl143c66vubj31kqt54ba
3820002,DGA,dga_web,Rio Huasco En Chepica,600,-28.6997,-70.55,38,Rio Huasco,382,Rio Huasco,2015-12-18,2017-06-06,486,2015-12-18,cl143c66vudx7h1u5hvoa
3820001,DGA,dga_web,Rio Huasco En Algodones,750,-28.7306,-70.5067,38,Rio Huasco,382,Rio Huasco,2003-10-01,2017-03-30,4795,2006-08-28,cl143c66vue9f84gczrqs
3804007,DGA,dga_web,Junta Del Carmen,770,-28.7539,-70.4817,38,Rio Huasco,380,Rio Transito,1948-05-01,2017-05-31,25108,-,cl143c66vukjsb3ke36gn
3806002,DGA,dga_web,El Transito,1100,-28.8731,-70.2822,38,Rio Huasco,380,Rio Transito,1993-01-01,2018-03-09,9159,2017-06-01,cl143c66y58xy44013dbo
3801002,DGA,dga_web,Junta Valerianos,1800,-28.9019,-70.0603,38,Rio Huasco,380,Rio Transito,1990-07-01,1992-08-31,336,-,cl143c66y5tdxdhxmfygs
3815004,DGA,dga_web,San Felix,1150,-28.9311,-70.4614,38,Rio Huasco,381,Rio Del Carmen,1969-07-01,2017-05-31,16943,-,cl143c66vgkt784kh458x
3802001,DGA,dga_web,Rio Conay En Las Lozas,0,-28.9456,-70.1011,38,Rio Huasco,380,Rio Transito,2015-12-01,2018-03-09,645,2016-11-29,cl143c66y5kf9gtvp62ps
3802006,DGA,dga_web,Conay En Albaricoque,1600,-28.9519,-70.1106,38,Rio Huasco,380,Rio Transito,1999-01-01,2017-05-31,6693,-,cl143c66y5k97nbwet3me
3940001,DGA,dga_web,Domeiko,780,-28.9544,-70.8936,39,Costeras E Islas Entre R.Huasco Y Cuarta Region,394,Q. Chanaral,1994-06-01,2017-05-31,8369,-,cl143c66ve6c0b7kskm6o
3802005,DGA,dga_web,Conay,1450,-28.975,-70.1533,38,Rio Huasco,380,Rio Transito,1965-01-01,2017-05-31,18377,-,cl143c66y55t7bmss074y
3804005,DGA,dga_web,El Parral,1400,-28.9797,-70.1986,38,Rio Huasco,380,Rio Transito,1993-02-01,2017-05-31,8657,-,cl143c66y54s6vn03gz8l
3802004,DGA,dga_web,Los Tambos,1400,-28.9817,-70.1881,38,Rio Huasco,380,Rio Transito,1959-01-01,1992-12-31,11314,-,cl143c66y54u496ex379s
3814003,DGA,dga_web,Rio Carmen En El Corral,2000,-29.1094,-70.4139,38,Rio Huasco,381,Rio Del Carmen,2015-12-01,2018-03-09,659,2017-04-01,cl143c66vfmsy1mnw9mql
3804006,DGA,dga_web,El Corral,1820,-29.1383,-70.3778,38,Rio Huasco,380,Rio Transito,1995-04-01,2017-05-31,7972,-,cl143c66vfnx83n7hy18l
4120001,DGA,dga_web,El Trapiche,300,-29.3731,-71.1181,41,Rio Los Choros,412,Q. Los Choros Entre Q. Del Pelicano Y Desembocadura,1979-01-01,2017-05-31,13905,-,cl143c66v2vsv3k1m17be
4334001,DGA,dga_web,Fundo San Antonio,260,-29.8369,-71.1044,43,Rio Elqui,433,R. Elqui Bajo,1961-11-01,1963-12-31,640,-,cl143c66tqmbr77qsw9ho
4306002,DGA,dga_web,Huanta,1240,-29.8478,-70.3847,43,Rio Elqui,430,Rio Turbio,1989-04-01,2017-05-31,10251,-,cl143c66tynq77vwgc85a
4335002,DGA,dga_web,La Serena (Escuela Agricola),15,-29.9061,-71.2556,43,Rio Elqui,433,R. Elqui Bajo,1971-01-01,2017-05-31,16921,-,cl143c66tmfec224vstv)
4308001,DGA,dga_web,Rio Turbio En Varillar,890,-29.9458,-70.5328,43,Rio Elqui,430,Rio Turbio,2014-11-01,2018-03-09,996,2016-09-13,cl143c66tvdux94dk2vpr
4331004,DGA,dga_web,Molino Yaco,1550,-29.9519,-70.28,43,Rio Elqui,433,R. Elqui Bajo,1958-09-01,1965-12-31,2679,-,cl143c66wj8ertt31v0bo
4302001,DGA,dga_web,Rio Toro Antes Junta Rio La Laguna,2165,-29.9711,-70.0928,43,Rio Elqui,430,Rio Turbio,2014-11-01,2018-03-09,1179,2016-10-02,cl143c66wjkzzvxqh0wza
4302014,DGA,dga_web,Juntas,2150,-29.9769,-70.0944,43,Rio Elqui,430,Rio Turbio,1990-01-01,2017-05-31,9332,-,cl143c66wjkyygfhg4h5s
4308003,DGA,dga_web,Rivadavia,820,-29.9772,-70.5617,43,Rio Elqui,430,Rio Turbio,1937-01-01,2017-05-31,25165,-,cl143c66tv6qfd1hzh88a
4314002,DGA,dga_web,Rio Claro En Rivadavia,820,-29.9781,-70.5525,43,Rio Elqui,431,Rio Claro,2015-04-01,2018-03-09,798,2016-09-02,cl143c66tv6w9hzt55bpa
4323007,DGA,dga_web,Almendral,370,-29.9822,-70.9186,43,Rio Elqui,432,R. Elqui Medio,1958-09-01,2017-05-31,19597,-,cl143c66tt6jythbg468l
4320001,DGA,dga_web,Rio Elqui En Algarrobal,760,-29.9953,-70.5867,43,Rio Elqui,432,R. Elqui Medio,2011-01-01,2018-03-09,2595,2016-10-02,cl143c66tv3g82dwv9vql
4321001,DGA,dga_web,Puclaro Embalse,460,-29.9964,-70.8556,43,Rio Elqui,432,R. Elqui Medio,1962-08-01,1966-12-31,1554,-,cl143c66tt7ekd2cg21fe
4400002,DGA,dga_web,Pan De Azucar,100,-30.0022,-71.2592,44,Costeras Entre Elqui Y Limari,440,E.  El Culebron - Q. El Romeral (Incl.),1978-09-01,1993-09-30,4384,-,cl143c66tm66q8s293fdr
4320003,DGA,dga_web,Vicua (Inia),730,-30.0567,-70.7167,43,Rio Elqui,432,R. Elqui Medio,1971-01-01,2017-05-31,16920,-,cl143c66ttnb3ej3n8sc)
4314003,DGA,dga_web,Monte Grande,1120,-30.0894,-70.4939,43,Rio Elqui,431,Rio Claro,1958-09-01,2017-05-31,20935,-,cl143c66tugf7ut163ece
4311003,DGA,dga_web,Pisco Elqui Dmc,1250,-30.1217,-70.4933,43,Rio Elqui,431,Rio Claro,1977-01-01,2017-05-31,14209,-,cl143c66tueus27h1sxfc
4313003,DGA,dga_web,Cochiguaz,1560,-30.1414,-70.4047,43,Rio Elqui,431,Rio Claro,1989-04-01,2017-05-31,10285,-,cl143c66tutbuveef9q8z
4311004,DGA,dga_web,Los Nichos,1330,-30.1472,-70.4983,43,Rio Elqui,431,Rio Claro,1977-01-01,2017-05-31,14001,-,cl143c66tu7zbeyd97p9s
4311005,DGA,dga_web,La Ortiga,1560,-30.1939,-70.4819,43,Rio Elqui,431,Rio Claro,1979-01-01,2017-05-31,13964,-,cl143c66tuhpkeu9n4y8a
4301005,DGA,dga_web,La Laguna Embalse,3160,-30.2033,-70.0422,43,Rio Elqui,430,Rio Turbio,1964-01-01,2017-05-31,19413,-,cl143c66whnjsv42y39he
4502005,DGA,dga_web,Hurtado,1100,-30.2867,-70.6961,45,Rio Limari,450,Rio Hurtado,1943-01-01,2017-05-31,26616,-,cl143c66texq2xjmzj56o
4410001,DGA,dga_web,Cerrillos Pobres,150,-30.2964,-71.3881,44,Costeras Entre Elqui Y Limari,441,Q. Camarones (Incl. - R. Limari,1961-08-01,1970-04-30,2555,-,cl143c66t5xs8y8tww2gs
4502004,DGA,dga_web,La Cortadera,920,-30.3503,-70.77,45,Rio Limari,450,Rio Hurtado,1967-06-01,1973-11-30,2283,-,cl143c66temdfueqp22ca
4501004,DGA,dga_web,Las Breas,1600,-30.3694,-70.6131,45,Rio Limari,450,Rio Hurtado,1943-05-01,1977-12-31,8919,-,cl143c66tg1pmj7t82s8s
4503003,DGA,dga_web,Pichasca,725,-30.3922,-70.8678,45,Rio Limari,450,Rio Hurtado,1946-05-01,2016-09-30,25343,-,cl143c66te5778se6317a
4503002,DGA,dga_web,Samo Alto,600,-30.4094,-70.9386,45,Rio Limari,450,Rio Hurtado,1968-06-01,1989-03-31,7122,-,cl143c66te1b0h6ufp08o
4501003,DGA,dga_web,Pabellon,1920,-30.4111,-70.5544,45,Rio Limari,450,Rio Hurtado,1968-05-01,2017-05-31,17862,-,cl143c66tffrzfe24637n
4503001,DGA,dga_web,Rio Hurtado En Angostura De Pangue,485,-30.4386,-71.0022,45,Rio Limari,450,Rio Hurtado,2017-05-29,2018-03-09,163,2017-05-29,cl143c66tdb6cf2cdqkze
4502003,DGA,dga_web,Estancia Chacay,1380,-30.4453,-70.7114,45,Rio Limari,450,Rio Hurtado,1968-06-01,1971-07-31,1002,-,cl143c66tdycte2bwx7fy
4501001,DGA,dga_web,Rio Hurtado En San Agustin,2035,-30.4622,-70.5361,45,Rio Limari,450,Rio Hurtado,2017-08-04,2018-02-18,184,2017-08-04,cl143c66tfdyt0vdrfbtn
4506006,DGA,dga_web,Bocatoma Canal Alimentador,450,-30.4806,-71.0667,45,Rio Limari,450,Rio Hurtado,1951-01-01,1964-10-31,4563,-,cl143c66t6wg4v9u7dxtr
4506007,DGA,dga_web,Recoleta Embalse,350,-30.5069,-71.0997,45,Rio Limari,450,Rio Hurtado,1943-05-01,2017-05-31,25528,-,cl143c66t6qn6u2vtjhge
4551004,DGA,dga_web,Ovalle (Escuela Agricola),340,-30.5528,-71.1642,45,Rio Limari,455,Rio Limari,1980-01-01,1983-04-30,1216,-,cl143c66t6hw5c1cq2ys)
4551005,DGA,dga_web,Ovalle Dga,220,-30.6006,-71.2,45,Rio Limari,455,Rio Limari,1971-02-01,2017-05-31,16770,-,cl143c66t3gv3dxf8nc9a
4552002,DGA,dga_web,La Torre,120,-30.6164,-71.3742,45,Rio Limari,455,Rio Limari,1936-06-01,2017-05-31,25753,-,cl143c66t1zf6ys97h57e
4540005,DGA,dga_web,Sotaqui,280,-30.6306,-71.1194,45,Rio Limari,454,Rio Grande Bajo (Entre Embalse Paloma Y Rio Hurtado),1954-05-01,2017-05-31,22787,-,cl143c66t3txu7vf7cb6i
4557001,DGA,dga_web,Salala,100,-30.6783,-71.53,45,Rio Limari,455,Rio Limari,1968-10-01,1977-08-31,3046,-,cl143c66t1kr1mynqhn5a
4524001,DGA,dga_web,Monte Patria,445,-30.6914,-70.9608,45,Rio Limari,452,R. Grande Medio (Arriba Junta R. Rapel Y R. Guatulame O Muro Emb. Paloma),1970-03-01,1989-03-31,5476,-,cl143c66t93hzcts27xca
4540006,DGA,dga_web,Paloma Embalse,320,-30.6958,-71.0361,45,Rio Limari,454,Rio Grande Bajo (Entre Embalse Paloma Y Rio Hurtado),1943-05-01,2017-05-31,26754,-,cl143c66t3rs104bhsxee
4523004,DGA,dga_web,Puntilla San Juan,430,-30.7025,-70.9178,45,Rio Limari,452,R. Grande Medio (Arriba Junta R. Rapel Y R. Guatulame O Muro Emb. Paloma),1965-01-01,1978-12-31,5112,-,cl143c66t964z0zrptehn
4523002,DGA,dga_web,Rio Grande En Puntilla San Juan,420,-30.7047,-70.9244,45,Rio Limari,452,Rio Grande Medio (Arriba Junta Rapel Y E Paloma),2017-05-25,2018-03-09,289,2017-05-25,cl143c66t9646kjtn61yn
4522003,DGA,dga_web,Rapel,870,-30.7211,-70.7753,45,Rio Limari,452,R. Grande Medio (Arriba Junta R. Rapel Y R. Guatulame O Muro Emb. Paloma),1969-01-01,2017-05-31,17527,-,cl143c66t9jrquxgzk34l
4520005,DGA,dga_web,Los Molles Bocatoma,2600,-30.7439,-70.4175,45,Rio Limari,452,R. Grande Medio (Arriba Junta R. Rapel Y R. Guatulame O Muro Emb. Paloma),1984-01-01,1992-04-30,1881,-,cl143c66tcje5xc3dkfka
4515004,DGA,dga_web,El Maiten,1350,-30.8058,-70.5939,45,Rio Limari,451,Rio Grande Alto (Hasta Arriba Junta Rio Rapel),1958-11-01,1974-12-31,5356,-,cl143c66tb9xgp4ysvn8n
4537003,DGA,dga_web,El Tome,420,-30.8178,-70.9706,45,Rio Limari,453,R. Guatulame (Muro Embalse Paloma),1966-01-01,2017-05-31,18627,-,cl143c66t89jbc31tn66e
4555001,DGA,dga_web,Punitaqui,280,-30.8278,-71.25,45,Rio Limari,455,Rio Limari,1961-08-01,2017-05-31,19775,-,cl143c66t2devr49t3f8i
4515005,DGA,dga_web,Pedregal,880,-30.8539,-70.7078,45,Rio Limari,451,Rio Grande Alto (Hasta Arriba Junta Rio Rapel),1967-01-01,1989-03-31,7853,-,cl143c66t8rp0phb4vq7l
4513004,DGA,dga_web,Caren,740,-30.8547,-70.7708,45,Rio Limari,451,Rio Grande Alto (Hasta Arriba Junta Rio Rapel),1943-05-01,2017-05-31,25354,-,cl143c66t8mx462g4c04n
4554003,DGA,dga_web,La Placilla,600,-30.8883,-71.3075,45,Rio Limari,455,Rio Limari,1989-05-01,2017-05-31,10104,-,cl143c66t232gqwgd1rba
4515007,DGA,dga_web,Ramadilla,1250,-30.8933,-70.6511,45,Rio Limari,451,Rio Grande Alto (Hasta Arriba Junta Rio Rapel),1937-05-01,1964-12-31,9735,-,cl143c66tb2213qp3x38a
4610001,DGA,dga_web,Pea Blanca,360,-30.9,-71.5503,46,Costeras Entre R.Limari Y R.Choapa,461,E.  El Teniente Y E. El Almendro (Incl.),1901-09-01,2017-05-31,10100,-,cl143c66t05yfdmnt2j9a
4513001,DGA,dga_web,Rio Grande En Cuyano,870,-30.9242,-70.7731,45,Rio Limari,451,Rio Grande Alto (Hasta Arriba Junta Rio Rapel),2017-08-04,2018-03-09,200,2017-08-04,cl143c66t8jd2t7pr9xmo
4513003,DGA,dga_web,Tulahuen,1020,-30.9669,-70.7639,45,Rio Limari,451,Rio Grande Alto (Hasta Arriba Junta Rio Rapel),1949-05-01,2017-05-31,24481,-,cl143c66mxvdxk9x7y07n
4535001,DGA,dga_web,Cogoti Embalse,740,-31.0078,-71.0856,45,Rio Limari,453,R. Guatulame (Muro Embalse Paloma),1936-01-01,2017-05-31,27356,-,cl143c66mrw7jn3rnu5ee
4511002,DGA,dga_web,Rio Grande En Las Ramadas,1380,-31.0117,-70.5811,45,Rio Limari,451,Rio Grande Alto (Hasta Arriba Junta Rio Rapel),2011-05-01,2018-02-09,2459,2016-07-24,cl143c66mz9fkrv0j7fss
4512002,DGA,dga_web,Tascadero,1230,-31.0153,-70.6664,45,Rio Limari,451,Rio Grande Alto (Hasta Arriba Junta Rio Rapel),1961-01-01,2017-05-31,19958,-,cl143c66mxxcy6c910c8o
4511003,DGA,dga_web,Las Ramadas,1380,-31.0181,-70.5858,45,Rio Limari,451,Rio Grande Alto (Hasta Arriba Junta Rio Rapel),1943-05-01,2017-05-31,26530,-,cl143c66mz9c2frxhdrbs
4531002,DGA,dga_web,Rio Cogoti Entrada Embalse Cogoti,670,-31.0325,-71.0403,45,Rio Limari,453,Rio Huatulame (Muro Embalse Paloma),2014-11-06,2018-02-25,1105,2014-11-06,cl143c66mrrqwn948yzzi
4531003,DGA,dga_web,Cogoti 18,840,-31.0836,-70.95,45,Rio Limari,453,R. Guatulame (Muro Embalse Paloma),1943-01-01,2017-05-31,26692,-,cl143c66mx1mruchvx988
4530001,DGA,dga_web,Rio Cogoti En Fraguita,1065,-31.1119,-70.885,45,Rio Limari,453,R. Guatulame (Muro Embalse Paloma),2014-11-01,2018-03-09,1026,2015-09-29,cl143c66mx4br05c3p3pa
4532006,DGA,dga_web,Combarbala,870,-31.1736,-71.0008,45,Rio Limari,453,R. Guatulame (Muro Embalse Paloma),1977-01-01,2017-05-31,14667,-,cl143c66mw8m4b97y2d9a
4732001,DGA,dga_web,La Canela Dmc,290,-31.3986,-71.4569,47,Rio Choapa,473,Rio Choapa Bajo (Entre Rio Illapel Y Desembocadura),1973-01-01,2017-05-31,15985,-,cl143c66mjmun9vs9x2dc
4721001,DGA,dga_web,Rio Illapel En Las Burras,1079,-31.5069,-70.8125,47,Rio Choapa,472,Rio Illapel,2014-06-01,2018-02-23,840,2017-06-01,cl143c66msu87gj0huxss
4721002,DGA,dga_web,Las Burras,1150,-31.5331,-70.8211,47,Rio Choapa,472,Rio Illapel,1989-06-01,2017-05-31,10194,-,cl143c66mss7tdku07e9s
4722001,DGA,dga_web,Santa Virginia,980,-31.5503,-70.8353,47,Rio Choapa,472,Rio Illapel,1918-05-01,1989-03-31,16383,-,cl143c66mss07q1vu1dea
4723001,DGA,dga_web,Rio Illapel En Huintil,775,-31.5608,-70.9644,47,Rio Choapa,472,Rio Illapel,2014-08-01,2018-03-09,1125,2016-10-02,cl143c66ms3nt318knspl
4723002,DGA,dga_web,Huintil,650,-31.5669,-70.9817,47,Rio Choapa,472,Rio Illapel,1914-05-01,2017-05-31,27941,-,cl143c66ms2v2tqx26f6l
4730004,DGA,dga_web,Mincha Norte,50,-31.5875,-71.4453,47,Rio Choapa,473,Rio Choapa Bajo (Entre Rio Illapel Y Desembocadura),1974-01-01,2017-05-31,15730,-,cl143c66mhq1xj7z5ngce
4726004,DGA,dga_web,Illapel Dos,290,-31.645,-71.1908,47,Rio Choapa,472,Rio Illapel,1971-07-01,1979-12-31,1371,-,cl143c66m7up0qw0kn1bs
4726003,DGA,dga_web,Illapel Dga,290,-31.645,-71.1908,47,Rio Choapa,472,Rio Illapel,1974-01-01,2017-05-31,15827,-,cl143c66m7up0qw0kn1ba
4726001,DGA,dga_web,Rio Illapel En El Peral,0,-31.6647,-71.2547,47,Rio Choapa,472,Rio Illapel,2012-06-22,2018-03-09,2030,2012-06-22,cl143c66m7fe9gv0hg0ql
4712001,DGA,dga_web,Rio Chalinga En La Palmilla,800,-31.6958,-70.7158,47,Rio Choapa,471,Rio Choapa Medio (Entre Rios Cuncumen E Illapel),2012-06-20,2018-01-24,2003,2012-06-20,cl143c66mewvfqd6tsrua
4713004,DGA,dga_web,San Agustin,1050,-31.7289,-70.8317,47,Rio Choapa,471,Rio Choapa Medio (Entre Rios Cuncumen E Illapel),1930-01-01,2017-05-31,31492,-,cl143c66mekpvvvb27jbn
4716005,DGA,dga_web,Limahuida,300,-31.745,-71.1619,47,Rio Choapa,471,Rio Choapa Medio (Entre Rios Cuncumen E Illapel),1964-01-01,2017-05-31,19078,-,cl143c66m7ksvrzx16y8a
4715002,DGA,dga_web,Mal Paso,375,-31.7533,-71.1,47,Rio Choapa,471,Rio Choapa Medio (Entre Rios Cuncumen E Illapel),1960-09-01,1989-05-31,9948,-,cl143c66m7q56x9gv7q7o
4711004,DGA,dga_web,Salamanca,510,-31.7758,-70.9669,47,Rio Choapa,471,Rio Choapa Medio (Entre Rios Cuncumen E Illapel),1971-07-01,2017-05-31,15950,-,cl143c66me1p7kx3ecx8a
4711001,DGA,dga_web,Rio Choapa En Salamanca,500,-31.8117,-70.9303,47,Rio Choapa,471,Rio Choapa Medio (Entre Rios Cuncumen E Illapel),2012-06-20,2018-03-09,2084,2012-06-20,cl143c66me1by5kjqcvqa
4704001,DGA,dga_web,Rio Cuncumen Antes Junta Choapa (Chacay),1030,-31.8167,-70.6,47,Rio Choapa,470,Rio Choapa Alto (Hasta Abajo Junta Rio Cuncumen),2012-06-19,2018-03-09,2039,2012-06-19,cl143c66mfcrywkc0rwz)
4710001,DGA,dga_web,La Tranquilla,1000,-31.9,-70.6706,47,Rio Choapa,471,Rio Choapa Medio (Entre Rios Cuncumen E Illapel),1966-01-01,2017-05-31,18703,-,cl143c66mdxbg1p8vrcda
4711003,DGA,dga_web,Coiron,840,-31.9019,-70.7708,47,Rio Choapa,471,Rio Choapa Medio (Entre Rios Cuncumen E Illapel),1974-01-01,2017-05-31,15853,-,cl143c66mdt86mbyfcb5n
4820001,DGA,dga_web,Los Vilos Dmc,10,-31.9103,-71.5086,48,Costeras Entre R.Choapa Y R.Quilimari,482,Costeras Entre Estero Pupio Y Rio Quilimari,1982-01-01,2017-05-31,12934,-,cl143c66m4kycj0bgjydc
4810003,DGA,dga_web,Caimanes,450,-31.9322,-71.1361,48,Costeras Entre R.Choapa Y R.Quilimari,481,Estero Pupio,1989-08-01,2017-05-31,9611,-,cl143c66m6m6bm2wrr67s
4703003,DGA,dga_web,Cuncumen,1100,-31.9336,-70.6133,47,Rio Choapa,470,Rio Choapa Alto (Hasta Abajo Junta Rio Cuncumen),1958-09-01,2017-05-31,20319,-,cl143c66mf34svqce207n
4810001,DGA,dga_web,Estero Pupio En El Romero,570,-31.9481,-71.074700000000007,48,Costeras Entre R.Choapa Y R.Quilimari,481,Estero Pupio,2012-06-21,2018-03-09,2032,2012-06-21,cl143c66m6q8hbz6w2pso
4703002,DGA,dga_web,Rio Choapa En Cuncumen,1200,-31.9667,-70.5944,47,Rio Choapa,470,Rio Choapa Alto (Hasta Abajo Junta Rio Cuncumen),2001-05-01,2018-03-09,6063,2005-03-29,cl143c66mf1sdsrr0ngpn
4900004,DGA,dga_web,El Naranjo,720,-32.0314,-71.1522,49,Rio Quilimari,490,Rio Quilimari Hasta Muro Embalse Culimo,1977-01-01,1989-04-30,4219,-,cl143c66m3ubue9d6239o
4901002,DGA,dga_web,Infiernillo,300,-32.0608,-71.3072,49,Rio Quilimari,490,Rio Quilimari Hasta Muro Embalse Culimo,1977-01-01,1989-04-30,4441,-,cl143c66m397e8mc9ymbo
4900002,DGA,dga_web,Culimo Embalse,380,-32.0675,-71.2225,49,Rio Quilimari,490,Rio Quilimari Hasta Muro Embalse Culimo,1972-01-01,2017-05-31,16245,-,cl143c66m3e63372wz6ee
4902005,DGA,dga_web,Quebrada Seca,140,-32.068600000000004,-71.4061,49,Rio Quilimari,490,Rio Quilimari Hasta Muro Embalse Culimo,1976-01-01,1989-04-30,4747,-,cl143c66m1x45dv78txda
5101005,DGA,dga_web,Pedernal Hacienda,1100,-32.0836,-70.8,51,Rio Petorca,510,Rio Petorca Alto (Hasta Despues Junta Rio Sobrante),1962-02-01,2017-05-31,18721,-,cl143c66m9kzm52rmxhha
4902002,DGA,dga_web,Los Condores,190,-32.1086,-71.3125,49,Rio Quilimari,490,Rio Quilimari Hasta Muro Embalse Culimo,1977-01-01,2017-05-31,14205,-,cl143c66m334zcf71uqcs
4902003,DGA,dga_web,Quilimari,25,-32.1175,-71.5,49,Rio Quilimari,490,Rio Quilimari Hasta Muro Embalse Culimo,1979-04-01,2017-05-31,13387,-,cl143c66m1kcpq10pcf8i
4900003,DGA,dga_web,Quelon,890,-32.1444,-71.1628,49,Rio Quilimari,490,Rio Quilimari Hasta Muro Embalse Culimo,1972-10-01,2017-05-31,15909,-,cl143c66m3hskc69d355n
5111002,DGA,dga_web,Frutillar Alto,780,-32.1567,-71.03,51,Rio Petorca,511,Petorca Medio,1972-10-01,2017-04-30,13718,-,cl143c66m3pdj99h9hxeo
4902004,DGA,dga_web,Quebrada El Manzano,300,-32.1728,-71.3722,49,Rio Quilimari,490,Rio Quilimari Hasta Muro Embalse Culimo,1977-01-01,1989-02-28,4440,-,cl143c66m0zzh7g5qkmko
5101006,DGA,dga_web,Chalaco,880,-32.1836,-70.7833,51,Rio Petorca,510,Rio Petorca Alto (Hasta Despues Junta Rio Sobrante),1962-05-01,2017-05-31,19799,-,cl143c66m8vm1hvw45f6o
5100003,DGA,dga_web,Nacimiento Del Sobrante,3380,-32.1883,-70.4831,51,Rio Petorca,510,Rio Petorca Alto (Hasta Despues Junta Rio Sobrante),1987-11-01,1987-11-30,30,-,cl143c66mbuh7c89zrmqe
5100007,DGA,dga_web,Chincolco,650,-32.215,-70.8394,51,Rio Petorca,510,Rio Petorca Alto (Hasta Despues Junta Rio Sobrante),1958-10-01,1978-07-31,7085,-,cl143c66m8sp2q42dzs8o
5000001,DGA,dga_web,Quebrada El Manzano,380,-32.22,-71.4017,50,Costeras Quilimari-Petorca,500,Costera Quilimari - Petorca,1977-01-01,1984-05-31,2708,-,cl143c66m0xnwbgu9teko
5100001,DGA,dga_web,Rio Sobrante En Piadero,1300,-32.2253,-70.7119,51,Rio Petorca,510,Rio Petorca Alto (Hasta Despues Junta Rio Sobrante),2012-03-22,2018-03-09,2172,2012-03-22,cl143c66m8wvt4j29vbqo
5100004,DGA,dga_web,Hacienda El Rancho,2000,-32.2256,-70.6044,51,Rio Petorca,510,Rio Petorca Alto (Hasta Despues Junta Rio Sobrante),1962-05-01,1975-11-30,4107,-,cl143c66mb9me2q0z84jo
5100006,DGA,dga_web,El Sobrante Hacienda,810,-32.2261,-70.7839,51,Rio Petorca,510,Rio Petorca Alto (Hasta Despues Junta Rio Sobrante),1944-01-01,2017-05-31,26018,-,cl143c66m8tm2tred9tma
5100005,DGA,dga_web,El Trapiche,1180,-32.2286,-70.71,51,Rio Petorca,510,Rio Petorca Alto (Hasta Despues Junta Rio Sobrante),1901-06-01,2017-05-31,19177,-,cl143c66m8wuywc9d88be
5111001,DGA,dga_web,Palquico,450,-32.2528,-71.1386,51,Rio Petorca,511,Petorca Medio,1903-07-01,2017-05-31,16119,-,cl143c66m2t0w3y6r1y7o
5110003,DGA,dga_web,Hierro Viejo,440,-32.2756,-70.9997,51,Rio Petorca,511,Petorca Medio,1978-08-01,2017-05-31,13951,-,cl143c66m82k7t504d9co
5110002,DGA,dga_web,Rio Petorca En Peon O Hierro Viejo,450,-32.2786,-70.9889,51,Rio Petorca,511,Petorca Medio,2003-08-01,2017-05-31,4864,-,cl143c66m82eg7w8zdgzo
5200005,DGA,dga_web,La Chupalla,1300,-32.3006,-70.6414,52,Rio Ligua,520,Rio Ligua Alto (Estero Alicahue),1962-05-01,1975-02-28,3280,-,cl143c66mb0xbe25druba
5111004,DGA,dga_web,El Salvador,340,-32.3058,-71.0792,51,Rio Petorca,511,Petorca Medio,1972-10-01,2017-05-31,15692,-,cl143c66m2nwctnd7h9br
5120004,DGA,dga_web,Las Colmenas,80,-32.3075,-71.2425,51,Rio Petorca,512,Rio Petorca Bajo (Entre Las Palmas Y Desembocadura),1903-06-01,2017-04-30,13835,-,cl143c66m24ydg1mmxxcs
5120005,DGA,dga_web,Santa Marta,100,-32.3181,-71.2597,51,Rio Petorca,512,Rio Petorca Bajo (Entre Las Palmas Y Desembocadura),1975-01-01,1978-09-30,1276,-,cl143c66m24kwm2ts2pba
5200001,DGA,dga_web,Rio Alicahue En Colliguay,780,-32.33,-70.7381,52,Rio Ligua,520,Rio Ligua Alto (Estero Alicahue),2003-07-01,2018-03-09,5258,2005-06-01,cl143c66m8n6d04g1tusy
5200006,DGA,dga_web,Alicahue,750,-32.3408,-70.7528,52,Rio Ligua,520,Rio Ligua Alto (Estero Alicahue),1962-06-01,2017-05-31,20016,-,cl143c66m8jbx3hmbt27e
5120003,DGA,dga_web,Artificio,250,-32.3914,-71.0931,51,Rio Petorca,512,Rio Petorca Bajo (Entre Las Palmas Y Desembocadura),1972-10-01,2017-05-31,16250,-,cl143c66jrwprd6tqkw8o
5120006,DGA,dga_web,Longotoma,20,-32.3919,-71.375,51,Rio Petorca,512,Rio Petorca Bajo (Entre Las Palmas Y Desembocadura),1979-01-01,2017-05-31,13447,-,cl143c66jpxz4r9bnw48a
5200007,DGA,dga_web,La Mostaza,1200,-32.4186,-70.6808,52,Rio Ligua,520,Rio Ligua Alto (Estero Alicahue),1903-07-01,2017-05-31,13802,-,cl143c66jxxd7gcyzw79a
5210002,DGA,dga_web,La Via,370,-32.4261,-70.9167,52,Rio Ligua,521,Rio Ligua Medio (Entre Quebrada La Cerrada Y Los Angeles),1979-01-01,2017-05-31,13815,-,cl143c66jxd30030gg45a
5220006,DGA,dga_web,Chacrilla,290,-32.4267,-71.0606,52,Rio Ligua,522,Rio Ligua Bajo (Entre Estero Los Angeles Y Desembocadura),1979-01-01,2017-05-31,12981,-,cl143c66jrwbzkb0bpy8a
5221005,DGA,dga_web,Valle Hermoso,80,-32.4372,-71.2067,52,Rio Ligua,522,Rio Ligua Bajo (Entre Estero Los Angeles Y Desembocadura),1976-12-01,2017-05-31,13742,-,cl143c66jr7wuzeesjhdo
5221006,DGA,dga_web,Los Cardos,60,-32.4453,-71.2264,52,Rio Ligua,522,Rio Ligua Bajo (Entre Estero Los Angeles Y Desembocadura),1971-08-01,1975-11-30,1583,-,cl143c66jr7jw82tdy89s
5211004,DGA,dga_web,Las Puertas,350,-32.4856,-70.9319,52,Rio Ligua,521,Rio Ligua Medio (Entre Quebrada La Cerrada Y Los Angeles),1979-01-01,2017-05-31,13802,-,cl143c66jx1yhvwvjzubs
5414004,DGA,dga_web,Resguardo Los Patos,1220,-32.4989,-70.5789,54,Rio Aconcagua,541,Aconcagua Medio,1940-08-01,2017-05-31,27656,-,cl143c66jz1gy00mvy0ks
5414001,DGA,dga_web,Rio Putaendo En Resguardo Los Patos,1218,-32.5017,-70.5811,54,Rio Aconcagua,541,Aconcagua Medio,2001-09-24,2018-03-09,5536,2001-09-24,cl143c66jz1ghrv5vrdzs
5220007,DGA,dga_web,Las Pataguas,350,-32.5333,-71.1294,52,Rio Ligua,522,Rio Ligua Bajo (Entre Estero Los Angeles Y Desembocadura),1903-07-01,2017-05-31,13770,-,cl143c66jqvmmpuc74ncs
5414005,DGA,dga_web,El Tartaro,950,-32.5669,-70.7,54,Rio Aconcagua,541,Aconcagua Medio,1990-07-01,2017-05-31,9769,-,cl143c66jwxpmu49g439o
5211003,DGA,dga_web,Mina Cerro Negro,650,-32.5864,-70.8694,52,Rio Ligua,521,Rio Ligua Medio (Entre Quebrada La Cerrada Y Los Angeles),1979-01-01,2017-05-31,13627,-,cl143c66jwe7f6rqc22go
5310001,DGA,dga_web,Laguna De Zapallar,50,-32.5919,-71.4322,53,Costeras Ligua-Aconcagua,531,Estero Catapilco,1903-05-01,2017-05-31,10430,-,cl143c66jnwdbdmj7ptjr
5424005,DGA,dga_web,El Cobre,280,-32.6531,-71.1964,54,Rio Aconcagua,542,Aconcagua Bajo,1989-05-01,2017-05-31,9580,-,cl143c66jq5zsmgsurk7e
5415004,DGA,dga_web,Jahuel,1020,-32.6836,-70.6,54,Rio Aconcagua,541,Aconcagua Medio,1989-04-01,2017-05-31,9764,-,cl143c66jy16nshz27y5l
5421005,DGA,dga_web,Catemu,440,-32.7344,-70.9342,54,Rio Aconcagua,542,Aconcagua Bajo,1903-06-01,2017-05-31,22022,-,cl143c66jtcbgk33dcu5u
5410008,DGA,dga_web,San Felipe,640,-32.7472,-70.7247,54,Rio Aconcagua,541,Aconcagua Medio,1962-04-01,2017-05-31,19980,-,cl143c66jtwwecep3rh9e
5410005,DGA,dga_web,Rio Aconcagua En San Felipe,650,-32.7572,-70.7367,54,Rio Aconcagua,541,Aconcagua Medio,1999-08-01,2018-03-09,6527,2017-06-01,cl143c66jtwkep7rmd9ue
5320001,DGA,dga_web,Estero Quintero En Valle Alegre,40,-32.7936,-71.4161,53,Costeras Ligua-Aconcagua,532,Costeras Entre Estero Catapilco Y Rio Aconcagua,2009-11-01,2017-05-31,2081,-,cl143c66jjqyh7kmbhnye
5425003,DGA,dga_web,Lo Rojas,190,-32.8119,-71.2653,54,Rio Aconcagua,542,Aconcagua Bajo,1963-12-01,2017-05-31,19254,-,cl143c66jm66f0y4sb67s
5410007,DGA,dga_web,Los Andes,820,-32.8336,-70.6,54,Rio Aconcagua,541,Aconcagua Medio,1971-08-01,2017-05-31,16053,-,cl143c66jv1qydkv26y8s
5404001,DGA,dga_web,Canal Colorado En Bocatoma,1391,-32.8347,-70.3533,54,Rio Aconcagua,540,Aconcagua Alto,2014-04-01,2018-03-09,1388,2014-07-14,cl143c66jvpndk12334ta
5423003,DGA,dga_web,Rio Aconcagua En Romeral,365,-32.8403,-71.0256,54,Rio Aconcagua,542,Aconcagua Bajo,2002-04-26,2018-03-09,5524,2002-04-26,cl143c66jmpv8ers65grl
5410002,DGA,dga_web,Rio Aconcagua En Chacabuquito,950,-32.8503,-70.5094,54,Rio Aconcagua,541,Aconcagua Medio,1999-08-01,2018-03-09,6796,2017-06-01,cl143c66jv5eb95uhxwwo
5423013,DGA,dga_web,Estero Rabuco,300,-32.8506,-71.1167,54,Rio Aconcagua,542,Aconcagua Bajo,1965-01-01,2017-05-31,18002,-,cl143c66jmjewrku31bdo
5410006,DGA,dga_web,Vilcuya,1100,-32.8603,-70.4719,54,Rio Aconcagua,541,Aconcagua Medio,1964-12-01,2017-05-31,19024,-,cl143c66jvh3gyvsnep6a
5401003,DGA,dga_web,Rio Juncal En Juncal,1800,-32.8625,-70.1675,54,Rio Aconcagua,540,Aconcagua Alto,2014-09-10,2018-03-09,1277,2014-09-10,cl143c66nj539d49zzdml
5426004,DGA,dga_web,Quillota,130,-32.8958,-71.2092,54,Rio Aconcagua,542,Aconcagua Bajo,1977-11-01,2017-05-31,13946,-,cl143c66jkgee016kj27a
5403002,DGA,dga_web,Rio Aconcagua En Rio Blanco,1420,-32.9067,-70.3036,54,Rio Aconcagua,540,Aconcagua Alto,2014-06-20,2018-03-09,1280,2014-06-20,cl143c66nhb1w2x6s26uo
5411001,DGA,dga_web,Estero Pocuro En El Sifon,1000,-32.9164,-70.5403,54,Rio Aconcagua,541,Rio Aconcagua Medio (Entre Rio Colorado Y E Seco),2017-04-01,2017-04-30,30,-,cl143c66judzf05fk18sn
5403006,DGA,dga_web,Riecillos,1290,-32.9228,-70.3553,54,Rio Aconcagua,540,Aconcagua Alto,1929-08-01,2017-05-31,31521,-,cl143c66juxn8ff9q008s
5422002,DGA,dga_web,Las Chilcas,850,-32.9319,-70.8178,54,Rio Aconcagua,542,Aconcagua Bajo,1990-05-01,2017-05-31,9669,-,cl143c66jsssbjc8vh8bs
5733010,DGA,dga_web,Fundo Las Bateas,810,-32.9472,-70.8064,57,Rio Maipo,573,Rio Mapocho Bajo,1985-11-01,2017-05-31,11379,-,cl143c66jssf0kekc2wgs
5733006,DGA,dga_web,Rincon De Los Valles,955,-32.9475,-70.7536,57,Rio Maipo,573,Rio Mapocho Bajo,1957-05-01,2017-05-31,21420,-,cl143c66jstfnfcsu4bms
5427007,DGA,dga_web,Los Aromos,100,-32.9578,-71.345,54,Rio Aconcagua,542,Aconcagua Bajo,1974-06-01,2017-05-31,15569,-,cl143c66jk880nvhb1n9s
5500003,DGA,dga_web,Las Salinas,20,-33.0019,-71.5467,55,Costeras Entre Aconcagua Y Maipo,550,E. Marga-Marga,2013-08-14,2018-03-09,1469,2013-08-14,cl143c66jh7bjmcpcy2bs
5733007,DGA,dga_web,Caleu,1120,-33.0053,-70.9933,57,Rio Maipo,573,Rio Mapocho Bajo,1957-05-01,2016-03-31,19690,-,cl143c66js0x860nnsx4u
5733008,DGA,dga_web,Rungue Embalse,700,-33.0194,-70.9081,57,Rio Maipo,573,Rio Mapocho Bajo,1943-05-01,2016-01-31,22861,-,cl143c66js4mn2198qyee
5510001,DGA,dga_web,Rodelillo,110,-33.0503,-71.5833,55,Costeras Entre Aconcagua Y Maipo,551,Lago Penuelas,1971-08-01,2018-03-09,15772,2014-05-01,cl143c66j5gp6sh1wc48o
5427008,DGA,dga_web,Quebrada Alvarado,290,-33.0506,-71.1,54,Rio Aconcagua,542,Aconcagua Bajo,1990-07-01,2017-05-31,9614,-,cl143c66j7yp6d3ct7who
5732002,DGA,dga_web,Huechun Andina,590,-33.0758,-70.7686,57,Rio Maipo,573,Rio Mapocho Bajo,1994-01-01,2017-05-31,7717,-,cl143c66jevdezkpgpwea
5510005,DGA,dga_web,Cerro Colorado Armada De Chile,510,-33.0819,-71.6169,55,Costeras Entre Aconcagua Y Maipo,551,Lago Penuelas,2014-05-08,2018-03-09,1344,2014-05-08,cl143c66j5f3d5vqbgexe
5732001,DGA,dga_web,Huechun Embalse,556,-33.0856,-70.8017,57,Rio Maipo,573,Rio Mapocho Bajo,1988-05-01,2017-05-31,10408,-,cl143c66jeubgy2v4h3fe
5733009,DGA,dga_web,Til-Til,580,-33.0869,-70.9278,57,Rio Maipo,573,Rio Mapocho Bajo,1943-05-01,1972-12-31,8500,-,cl143c66jecbxyy6z1d6l
5427006,DGA,dga_web,Lliu-Lliu Embalse,260,-33.0986,-71.2144,54,Rio Aconcagua,542,Aconcagua Bajo,1978-01-01,2017-05-31,14328,-,cl143c66j7eqx68jy87he
5510002,DGA,dga_web,Lago Peuelas,360,-33.145,-71.5553,55,Costeras Entre Aconcagua Y Maipo,551,Lago Penuelas,1974-01-01,2017-05-31,15761,-,cl143c66j57wph2sjjscs
5500001,DGA,dga_web,Las Piedras,225,-33.1542,-71.3428,55,Costeras Entre Aconcagua Y Maipo,550,E. Marga-Marga,1991-05-01,2017-05-31,7938,-,cl143c66j72s3yb30tkbs
5741002,DGA,dga_web,Colliguay,490,-33.1686,-71.1467,57,Rio Maipo,574,Rio Maipo Bajo (Entre Rio Mapocho Y Desembocadura),1950-08-01,2017-05-31,23969,-,cl143c66j7m1bdcsz6h8y
5706003,DGA,dga_web,Valle Olivares,2787,-33.1869,-70.1122,57,Rio Maipo,570,Rio Maipo Alto,2014-05-19,2018-03-09,1391,2014-05-19,cl143c66n5hw9b736w2es
5721017,DGA,dga_web,Estero Yerba Loca En Piedra Carvajal,3250,-33.2214,-70.2736,57,Rio Maipo,572,Rio Mapocho Alto,2013-02-04,2018-03-09,1820,2013-02-04,cl143c66n50bhr66jvyzl
5520002,DGA,dga_web,Tapihue,310,-33.2897,-71.2914,55,Costeras Entre Aconcagua Y Maipo,552,E. Casablanca Y E.  San Jeronimo (Incl.),1989-06-01,2017-05-31,9448,-,cl143c66j69ez1mypk26e
5721016,DGA,dga_web,Rio San Francisco Antes Junta Estero Yerba Loca,1550,-33.3086,-70.3572,57,Rio Maipo,572,Rio Mapocho Alto,2013-03-24,2018-03-09,1811,2013-03-24,cl143c66jfwbr7q6vm8za
5722001,DGA,dga_web,Estero Arrayan En La Montosa,880,-33.3256,-70.4561,57,Rio Maipo,572,Rio Mapocho Alto,2013-04-01,2018-03-09,1780,2014-09-01,cl143c66jfktr2mcuhdva
5520001,DGA,dga_web,Casablanca,290,-33.3278,-71.4131,55,Costeras Entre Aconcagua Y Maipo,552,E. Casablanca Y E.  San Jeronimo (Incl.),1986-01-01,2017-05-31,11314,-,cl143c66j4quye6pv1j9a
5723001,DGA,dga_web,La Dehesa,920,-33.3292,-70.5286,57,Rio Maipo,572,Rio Mapocho Alto,1991-05-01,2007-04-30,5010,-,cl143c66jf7hdekdb1v8a
5721001,DGA,dga_web,Estero Yerba Loca Antes Junta San Francisco,1350,-33.3414,-70.3636,57,Rio Maipo,572,Rio Mapocho Alto,2009-06-01,2018-03-09,3198,2016-03-01,cl143c66jfqf6u3291fzo
5720003,DGA,dga_web,La Ermita Central En Bocatoma,1350,-33.3414,-70.3636,57,Rio Maipo,572,Rio Mapocho Alto,1987-05-01,2011-01-31,7847,-,cl143c66jfqf6u3291fwa
5722002,DGA,dga_web,Rio Mapocho En Los Almendros,966,-33.3703,-70.4508,57,Rio Maipo,572,Rio Mapocho Alto,1999-08-01,2017-05-30,6285,2003-06-14,cl143c66jfhv57cmhn9vs
5720001,DGA,dga_web,Rio Molina Antes Junta San Francisco,1158,-33.3733,-70.3961,57,Rio Maipo,572,Rio Mapocho Alto,2009-11-01,2018-03-09,2996,2013-02-25,cl143c66jfnhe47vzr4zo
5730012,DGA,dga_web,Cerro Calan,848,-33.395,-70.5367,57,Rio Maipo,573,Rio Mapocho Bajo,1975-11-01,2018-03-09,15438,2016-02-01,cl143c66jf4bsspbb37bn
5730014,DGA,dga_web,Quebrada Ramon,730,-33.4328,-70.5344,57,Rio Maipo,573,Rio Mapocho Bajo,1980-04-01,2008-03-31,9275,-,cl143c66jcfcwrv677een
5730008,DGA,dga_web,Quebrada Ramon En Recinto Emos,845,-33.4331,-70.5142,57,Rio Maipo,573,Rio Mapocho Bajo,2007-09-01,2017-05-15,2642,-,cl143c66jcg3tnh43w4xs
5744002,DGA,dga_web,Los Panguiles,190,-33.4386,-71.0256,57,Rio Maipo,574,Rio Maipo Bajo (Entre Rio Mapocho Y Desembocadura),1981-01-01,2017-05-31,13236,-,cl143c66j3zb8wp94j7ds
5530005,DGA,dga_web,Algarrobo,130,-33.4389,-71.6239,55,Costeras Entre Aconcagua Y Maipo,553,E. Del Rosario (Incl.) A R. Maipo,2012-02-01,2016-11-30,970,-,cl143c66j1f0th61jrc8o
5530003,DGA,dga_web,Lagunillas,200,-33.4394,-71.4506,55,Costeras Entre Aconcagua Y Maipo,553,E. Del Rosario (Incl.) A R. Maipo,1986-05-01,2017-04-30,11018,-,cl143c66j1y0e32k51h9s
5730016,DGA,dga_web,Terraza Oficinas Centrales Dga,560,-33.4486,-70.6444,57,Rio Maipo,573,Rio Mapocho Bajo,1960-06-01,2018-03-09,20934,2013-05-31,cl143c66jc8qy7f1j3jxa
5744003,DGA,dga_web,Ibacache Alto,169,-33.4797,-71.2811,57,Rio Maipo,574,Rio Maipo Bajo (Entre Rio Mapocho Y Desembocadura),1988-05-01,2017-05-31,10612,-,cl143c66j39cnwtgx6rdo
5706001,DGA,dga_web,Rio Olivares Antes Junta Rio Colorado,1500,-33.4878,-70.1367,57,Rio Maipo,570,Rio Maipo Alto,2014-07-01,2018-03-09,1345,2016-12-25,cl143c66n1kp8p2mtgzzo
5705001,DGA,dga_web,Rio Colorado Antes Junta Rio Olivares,1500,-33.49,-70.1342,57,Rio Maipo,570,Rio Maipo Alto,2013-04-01,2018-03-09,1429,2016-11-23,cl143c66n1kp3fdew07zs
5737002,DGA,dga_web,Rio Mapocho Rinconada De Maipu,440,-33.4961,-70.8167,57,Rio Maipo,573,Rio Mapocho Bajo,2001-04-24,2017-05-21,5446,2001-04-24,cl143c66j9kw0z563hrxu
5730013,DGA,dga_web,Antupiren,904,-33.4964,-70.5164,57,Rio Maipo,573,Rio Mapocho Bajo,1979-08-01,2017-05-31,13605,-,cl143c66jc7q5t2f3nu8n
5730015,DGA,dga_web,Campus San Joaquin U.C.,570,-33.4975,-70.6142,57,Rio Maipo,573,Rio Mapocho Bajo,1977-11-01,1983-04-30,2006,-,cl143c66jc3juqcvkjjq.
5730039,DGA,dga_web,Quebrada De Macul,950,-33.5017,-70.5144,57,Rio Maipo,573,Rio Mapocho Bajo,2003-05-01,2018-03-09,3836,2013-07-11,cl143c66jc7mhyrqkrnhl
5707003,DGA,dga_web,Maitenes Bocatoma,1143,-33.5311,-70.2617,57,Rio Maipo,570,Rio Maipo Alto,1988-02-01,2017-05-31,9149,-,cl143c66n11pugptzjrha
5737008,DGA,dga_web,Fundo Marruecos,430,-33.5503,-70.8167,57,Rio Maipo,573,Rio Mapocho Bajo,1989-07-01,2017-05-31,9462,-,cl143c66j9hs2g76c0zfs
5745001,DGA,dga_web,Mallarauco,176,-33.5697,-71.1061,57,Rio Maipo,574,Rio Maipo Bajo (Entre Rio Mapocho Y Desembocadura),1992-07-01,2017-05-31,9094,-,cl143c66j3jby47f2gq9o
5530002,DGA,dga_web,San Antonio (Pta. Panul),80,-33.5747,-71.625,55,Costeras Entre Aconcagua Y Maipo,553,E. Del Rosario (Incl.) A R. Maipo,1971-07-01,2017-05-31,15918,-,cl143c66j0fpum0w314r)
5710007,DGA,dga_web,La Obra Recinto Emos,796,-33.5914,-70.4853,57,Rio Maipo,571,Rio Maipo Medio,1995-06-01,2017-05-31,8033,-,cl143c66jbuhf5vmnvzms
5710001,DGA,dga_web,Rio Maipo En El Manzano,850,-33.5939,-70.3792,57,Rio Maipo,571,Rio Maipo Medio,2010-03-01,2018-03-09,2803,2017-02-16,cl143c66jbykrmmg0uuqo
5737006,DGA,dga_web,Peaflor,370,-33.6097,-70.9,57,Rio Maipo,573,Rio Mapocho Bajo,1971-08-01,1979-09-30,2306,-,cl143c66j8f9s1q3b4p6r
5748003,DGA,dga_web,Cerrillos De Leyda,182,-33.6344,-71.5106,57,Rio Maipo,574,Rio Maipo Bajo (Entre Rio Mapocho Y Desembocadura),1932-03-01,2017-05-31,30438,-,cl143c66j0stp96jruuja
5704006,DGA,dga_web,San Jose De Maipo Reten,943,-33.6361,-70.3531,57,Rio Maipo,570,Rio Maipo Alto,1971-08-02,2017-05-31,16409,-,cl143c66jbxhdrtbqryqn
5746001,DGA,dga_web,Estero Puangue En Ruta 78,93,-33.6614,-71.3372,57,Rio Maipo,574,Rio Maipo Bajo (Entre Rio Mapocho Y Desembocadura),1989-04-27,2018-03-09,10301,2013-05-02,cl143c66j288ju4u0r9s8
5703009,DGA,dga_web,Laguna Negra,2780,-33.6658,-70.1078,57,Rio Maipo,570,Rio Maipo Alto (Hasta Despues Junta Rio Colorado),2015-05-21,2016-08-31,394,2015-05-21,cl143c66n0kxm49b52sca
5737007,DGA,dga_web,Talagante,325,-33.6669,-70.9333,57,Rio Maipo,573,Rio Mapocho Bajo,1971-08-01,1972-08-31,336,-,cl143c66j83z5un6cyz8e
5711003,DGA,dga_web,Pirque,659,-33.6736,-70.5869,57,Rio Maipo,571,Rio Maipo Medio,1967-10-01,2017-05-31,16643,-,cl143c66jb3vbjn1bxb5e
5703008,DGA,dga_web,El Yeso Embalse,2475,-33.6767,-70.0886,57,Rio Maipo,570,Rio Maipo Alto,1962-04-01,2017-05-31,19571,-,cl143c66n0mj7510pgwfe
5740005,DGA,dga_web,Melipilla,168,-33.6803,-71.199700000000007,57,Rio Maipo,574,Rio Maipo Bajo (Entre Rio Mapocho Y Desembocadura),1971-08-01,2017-05-31,15470,-,cl143c66j27u9yn9p8x8a
5717008,DGA,dga_web,El Vergel,340,-33.6958,-70.9236,57,Rio Maipo,571,Rio Maipo Medio,1988-05-01,2017-05-31,10527,-,cl143c66j861g58rdgd8l
5704005,DGA,dga_web,San Alfonso,1040,-33.7067,-70.3342,57,Rio Maipo,570,Rio Maipo Alto,1962-05-01,1973-08-31,4108,-,cl143c66jbpxbhnreq9bo
5748001,DGA,dga_web,Rio Maipo En Cabimbao,35,-33.7219,-71.555,57,Rio Maipo,574,Rio Maipo Bajo (Entre Rio Mapocho Y Desembocadura),2009-10-01,2018-03-09,2717,2012-05-25,cl143c66j05tp5xwhz5oo
5704002,DGA,dga_web,Rio Maipo En San Alfonso,1092,-33.7347,-70.3008,57,Rio Maipo,570,Rio Maipo Alto,2010-01-01,2017-02-28,2564,2016-04-13,cl143c66n006b90shhhro
5740004,DGA,dga_web,Carmen De Las Rosas,165,-33.7597,-71.1514,57,Rio Maipo,574,Rio Maipo Bajo (Entre Rio Mapocho Y Desembocadura),1930-11-01,2017-05-31,30475,-,cl143c63vruyjpkpyc4ks
5704004,DGA,dga_web,San Gabriel,1266,-33.7825,-70.2394,57,Rio Maipo,570,Rio Maipo Alto,1977-12-01,2017-05-31,14186,-,cl143c63ypcdj4xme3cbl
5716004,DGA,dga_web,Angostura En Valdivia De Paine,350,-33.8044,-70.8783,57,Rio Maipo,571,Rio Maipo Medio,1988-05-01,2015-01-31,9516,-,cl143c63vxen5gpghgqxe
5702011,DGA,dga_web,Glaciar San Franciscoen Aguas Panimavida,2220,-33.8053,-70.07,57,Rio Maipo,570,Rio Maipo Alto,2013-05-28,2018-03-09,1719,2013-05-28,cl143c63ypttbtfem4eza
5702001,DGA,dga_web,Rio Volcan En Queltehues,1365,-33.8056,-70.2089,57,Rio Maipo,570,Rio Maipo Alto,2014-05-01,2018-03-09,1402,2016-12-31,cl143c63ypdmgkn53v0rs
5716001,DGA,dga_web,Rio Angostura En Valdivia De Paine,342,-33.8111,-70.8836,57,Rio Maipo,571,Rio Maipo Medio,2015-01-01,2017-05-31,746,-,cl143c63vxehbhh6hurze
5701008,DGA,dga_web,Queltehues,1450,-33.8164,-70.2172,57,Rio Maipo,570,Rio Maipo Alto,1970-01-01,1979-08-31,3516,-,cl143c63ypd5vmhwhud9s
5716011,DGA,dga_web,Laguna Aculeo Los Castaos,354,-33.8592,-70.9069,57,Rio Maipo,571,Rio Maipo Medio,2014-10-01,2014-10-31,31,-,cl143c63vx6kp5v7xhxss
5800002,DGA,dga_web,Fundo Las Dos Puertas,24,-33.8622,-71.6631,58,Costeras Entre  Maipo Y Rapel,580,Estero Yali,1990-06-01,2017-05-31,9790,-,cl143c63vp378d2srsuos
5716005,DGA,dga_web,Laguna Aculeo,360,-33.8858,-70.8775,57,Rio Maipo,571,Rio Maipo Medio,1988-11-01,2017-05-31,9250,-,cl143c63vx5pk8ft13qdo
5747001,DGA,dga_web,Los Guindos,125,-33.8908,-71.2408,57,Rio Maipo,574,Rio Maipo Bajo (Entre Rio Mapocho Y Desembocadura),1989-07-01,2017-05-31,10134,-,cl143c63vr4yk5c0cr7bs
5701005,DGA,dga_web,Las Melosas,1527,-33.8994,-70.1981,57,Rio Maipo,570,Rio Maipo Alto,1962-07-01,2004-12-30,14235,-,cl143c63yp4sg39tyf6bs
6056003,DGA,dga_web,Rapel,16,-33.9458,-71.7336,60,Rio Rapel,605,Rio Rapel,1940-07-01,2017-02-28,27621,-,cl143c63uyzsm5mupp94l
6040001,DGA,dga_web,Villa Alhue,197,-34.035,-71.0944,60,Rio Rapel,604,Estero Alhue,1979-01-01,2017-05-31,13706,-,cl143c63vqqhneu2jhgbe
6011003,DGA,dga_web,Graneros,500,-34.0556,-70.7083,60,Rio Rapel,601,Cachapoal Bajo,1979-01-01,1998-06-30,7120,-,cl143c63vwqbrgc0n0u7s
6042004,DGA,dga_web,Barrera Loncha,144,-34.0833,-71.1886,60,Rio Rapel,604,Estero Alhue,1984-05-01,2017-05-31,11591,-,cl143c63vqh5643kkkpea
6042003,DGA,dga_web,Loncha,210,-34.1167,-71.1,60,Rio Rapel,604,Estero Alhue,1976-04-01,1987-11-30,3562,-,cl143c63vmyj4xcfjmq5a
6055003,DGA,dga_web,Litueche,250,-34.1206,-71.7258,60,Rio Rapel,605,Rio Rapel,1979-01-01,2017-02-28,13878,-,cl143c63uvzudc5ephu7e
6010014,DGA,dga_web,Rancagua,510,-34.1714,-70.7278,60,Rio Rapel,601,Cachapoal Bajo,1971-09-01,1978-08-31,2557,-,cl143c63vtwe394v3gh7a
6011001,DGA,dga_web,Estero De La Cadena Antes Junta Rio Cachapoal,440,-34.1842,-70.8436,60,Rio Rapel,600,Rio Cachapoal Bajo (Bajo Jta Rio Claro Y E Rapel),2016-12-31,2018-03-09,416,2016-12-31,cl143c63vtebvq87r0hzl
6010015,DGA,dga_web,Rancagua (Cachapoal - Dcp),515,-34.1908,-70.7508,60,Rio Rapel,601,Cachapoal Bajo,1903-01-01,2018-03-09,14316,2017-03-01,cl143c63vtqpbb4ugvdt)
6044001,DGA,dga_web,Cocalan,120,-34.2033,-71.2764,60,Rio Rapel,604,Estero Alhue,1978-11-01,2017-02-28,13961,-,cl143c63vm6j6p7db046n
6008009,DGA,dga_web,Canal Sauzal En Puente Termas,750,-34.2403,-70.5506,60,Rio Rapel,600,Rio Cachapoal Alto (Hasta Bajo Junta Rio Claro),2005-07-29,2018-03-09,4515,2005-07-29,cl143c63vv4wdxgc7y8ws
6006001,DGA,dga_web,Rio Pangal En Pangal,1500,-34.2467,-70.3281,60,Rio Rapel,600,Rio Cachapoal Alto (Hasta Bajo Junta Rio Claro),2001-11-01,2018-03-09,5829,2002-03-28,cl143c63vvptsds2rv1ml
6010016,DGA,dga_web,Sauzal,700,-34.2583,-70.6153,60,Rio Rapel,601,Cachapoal Bajo,1979-01-01,1999-07-31,6079,-,cl143c63vv157wbnpbq5l
6019003,DGA,dga_web,Rio Cachapoal En Puente Arqueado (Ca),115,-34.2731,-71.3717,60,Rio Rapel,601,Cachapoal Bajo,2002-09-25,2018-03-09,5212,2002-09-25,cl143c63vjpbu8wz54zz)
6019005,DGA,dga_web,Pichidegua,110,-34.2872,-71.4058,60,Rio Rapel,601,Cachapoal Bajo,1974-01-01,2017-02-28,15603,-,cl143c63vhzn5ys68mj9a
6012003,DGA,dga_web,Coltauco,253,-34.2875,-71.08,60,Rio Rapel,601,Cachapoal Bajo,1978-10-01,2017-02-28,13968,-,cl143c63vkyw1hgfwx87o
6003001,DGA,dga_web,Rio Cachapoal 5 Km. Aguas Abajo Junta Cortaderal,1127,-34.3464,-70.3764,60,Rio Rapel,600,Rio Cachapoal Alto (Hasta Bajo Junta Rio Claro),1999-03-01,2018-03-09,6206,2000-02-11,cl143c63vuwe3mxnbxqzl
6000003,DGA,dga_web,Rio Las Leas Ante Junta Rio Cachapoal,1296,-34.3628,-70.3056,60,Rio Rapel,600,Rio Cachapoal Alto (Hasta Bajo Junta Rio Claro),2014-07-01,2018-03-09,1348,2016-02-01,cl143c63yh80mn0vc18zl
6120001,DGA,dga_web,Pichilemu,5,-34.3844,-72.0044,61,Costeras Rapel-E.Nilahue,612,Costeras Entre E. Topocalma Y E. Nilahue,1980-07-01,2018-03-09,13678,2017-03-01,cl143c63uu3kxbrg7bt8u
6000004,DGA,dga_web,Laguna El Yeso,2140,-34.4078,-70.21,60,Rio Rapel,600,Rio Cachapoal Alto (Hasta Bajo Junta Rio Claro),2015-06-01,2017-11-15,774,2017-03-01,cl143c63yh6268h3jw1eo
6015003,DGA,dga_web,Rengo,310,-34.4217,-70.8667,60,Rio Rapel,601,Cachapoal Bajo,1971-01-01,2017-02-27,16426,-,cl143c63vs5msrn4n924o
6013005,DGA,dga_web,Popeta,480,-34.4369,-70.7794,60,Rio Rapel,601,Cachapoal Bajo,1970-01-01,2017-02-28,17013,-,cl143c63vsj6un82w1u5a
6018009,DGA,dga_web,Via Vieja,220,-34.4517,-71.0506,60,Rio Rapel,601,Cachapoal Bajo,1958-01-01,2003-07-31,14358,-,cl143c63vkp0q8318sr8a
6013001,DGA,dga_web,Rio Claro En Hacienda Las Nieves,720,-34.4922,-70.7028,60,Rio Rapel,601,Cachapoal Bajo,2015-06-10,2018-03-09,1003,2015-06-10,cl143c63vez0gu37ghxzs
6013006,DGA,dga_web,Central Las Nieves,700,-34.4922,-70.7094,60,Rio Rapel,601,Cachapoal Bajo,1970-01-01,2005-08-31,11658,-,cl143c63veybyurecutjs
6018010,DGA,dga_web,Millahue,200,-34.5264,-71.2122,60,Rio Rapel,601,Cachapoal Bajo,1972-01-01,2017-02-28,15811,-,cl143c63v7ed8v5kx197e
6013008,DGA,dga_web,Laguna Los Cristales,2343,-34.5606,-70.5097,60,Rio Rapel,601,Cachapoal Bajo,2013-03-28,2017-10-26,1326,2013-03-28,cl143c63vg7s2muvjn8ms
6132002,DGA,dga_web,Nilahue Barahona,90,-34.5742,-71.7653,61,Costeras Rapel-E.Nilahue,613,Estero Nilahue,1969-01-01,2017-02-28,16810,-,cl143c63ugqcynemcz3ga
6016004,DGA,dga_web,San Fernando,350,-34.5983,-70.9686,60,Rio Rapel,601,Cachapoal Bajo,1971-09-01,2018-03-09,16991,2016-01-01,cl143c63ve1jd4rc2mkco
6034004,DGA,dga_web,Paniahue,170,-34.6169,-71.35,60,Rio Rapel,603,Tinguiririca Bajo,1979-01-01,1988-08-31,3376,-,cl143c63v706htbqpuj7e
6027001,DGA,dga_web,Rio Claro En El Valle,476,-34.6867,-70.8739,60,Rio Rapel,602,Rio Tinguiririca Alto (Hasta Bajo Junta Rio Claro),2016-04-27,2018-03-09,681,2016-04-27,cl143c63vdejrpq6myfoe
6028001,DGA,dga_web,Rio Tinguiririca Bajo Los Briones,560,-34.7186,-70.8267,60,Rio Rapel,602,Rio Tinguiririca Alto (Hasta Bajo Junta Rio Claro),1999-03-01,2018-03-09,6944,2000-02-26,cl143c63vdkr9t6rbeyzs
6027003,DGA,dga_web,La Rufina,743,-34.7428,-70.7519,60,Rio Rapel,602,Rio Tinguiririca Alto (Hasta Bajo Junta Rio Claro),1929-05-01,2017-02-27,31893,-,cl143c63vdq52090xt78a
7120002,DGA,dga_web,Laguna De Torca,28,-34.7675,-72.065,71,Rio Mataquito,712,Rio Mataquito,2014-05-04,2018-03-09,1369,2014-08-01,cl143c63uf0ngbeu321fa
6034003,DGA,dga_web,Convento Viejo,239,-34.7694,-71.1331,60,Rio Rapel,603,Tinguiririca Bajo,1971-09-01,2018-03-09,16955,2017-03-01,cl143c63v6jq6mwdh61eo
6036001,DGA,dga_web,La Candelaria,213,-34.7808,-71.4142,60,Rio Rapel,603,Tinguiririca Bajo,1974-05-01,2017-01-31,15475,-,cl143c63v4numg0sbyqda
6130001,DGA,dga_web,El Membrillo,110,-34.8056,-71.6289,61,Costeras Rapel-E.Nilahue,613,Estero Nilahue,1981-05-01,2017-02-28,12974,-,cl143c63v1fpc6ttvh8co
6130002,DGA,dga_web,Ranguili,120,-34.8661,-71.7486,61,Costeras Rapel-E.Nilahue,613,Estero Nilahue,1981-05-01,2017-02-28,13055,-,cl143c63ucxkf60ryhp7i
7106007,DGA,dga_web,Santa Susana,410,-34.9114,-71.0353,71,Rio Mataquito,710,Rio Teno,1981-07-01,2017-02-28,11654,-,cl143c63v3rs9dme370ca
6130003,DGA,dga_web,La Palma,120,-34.9514,-71.5856,61,Costeras Rapel-E.Nilahue,613,Estero Nilahue,1981-03-01,2017-02-28,12621,-,cl143c63v15j2cqdgcf7a
7104005,DGA,dga_web,El Manzano,574,-34.9633,-70.9178,71,Rio Mataquito,710,Rio Teno,1959-07-01,2017-02-28,17464,-,cl143c63v945php2rxe9o
7118003,DGA,dga_web,Curico,195,-34.9811,-71.2361,71,Rio Mataquito,711,Rio Lontue,1971-09-01,2018-03-09,16701,2016-09-01,cl143c63v2fzzkqd3fm5o
7123001,DGA,dga_web,Rio Mataquito En Licanten,20,-34.9844,-72.01,71,Rio Mataquito,712,Rio Mataquito,2001-04-27,2018-03-09,5907,2001-04-27,cl143c63ubcr7cj7hm0sn
7104002,DGA,dga_web,Rio Teno Despues De Junta Con Claro,647,-34.9961,-70.8206,71,Rio Mataquito,710,Rio Teno,1999-08-01,2018-03-09,6792,2004-03-01,cl143c63v8umnhbqj5vzo
7103003,DGA,dga_web,Los Quees,663,-35.0008,-70.8119,71,Rio Mataquito,710,Rio Teno,1918-05-01,2017-02-28,34064,-,cl143c63v8usk3e1ur78s
7119007,DGA,dga_web,Lontue,199,-35.0422,-71.2906,71,Rio Mataquito,711,Rio Lontue,1969-10-01,2018-03-09,15629,2016-08-31,cl143c63v29szb2s7yb5e
7121003,DGA,dga_web,Villa Prat,90,-35.0969,-71.6139,71,Rio Mataquito,712,Rio Mataquito,1992-06-01,2017-02-28,8901,-,cl143c63v066u3eptud9t
7116004,DGA,dga_web,Monte Oscuro,632,-35.1242,-70.9747,71,Rio Mataquito,711,Rio Lontue,1994-05-01,2017-02-28,8216,-,cl143c63v80vvf9wecsco
7116005,DGA,dga_web,Potrero Grande,445,-35.1833,-71.0978,71,Rio Mataquito,711,Rio Lontue,1971-05-01,2018-03-09,16891,2016-09-01,cl143c63try5h4mjtbkee
7210001,DGA,dga_web,Putu,36,-35.2183,-72.2833,72,Costeras Mataquito-Maule,721,Costeras Entre Rio Huenchullami Y Rio Maule,1992-07-01,2017-02-28,8856,-,cl143c63sxehsyt11123u
7200001,DGA,dga_web,Gualleco,100,-35.2439,-71.98,72,Costeras Mataquito-Maule,720,Rio Huenchullami,1961-09-01,2018-03-09,20644,2016-09-01,cl143c63szd01c2kvgk7o
7373003,DGA,dga_web,El Guindo,250,-35.2578,-71.3239,73,Rio Maule,737,Rio Claro,1964-01-01,2017-02-28,19230,-,cl143c63tr2vx82ttqx8o
7115001,DGA,dga_web,Rio Palos En Junta Con Colorado,600,-35.2744,-71.0156,71,Rio Mataquito,711,Rio Lontue,2001-04-01,2018-03-09,6041,2012-10-01,cl143c63tx242p8x4xuyo
7373004,DGA,dga_web,San Rafael,152,-35.3064,-71.5233,73,Rio Maule,737,Rio Claro,1992-06-01,2017-02-28,8884,-,cl143c63tphkwm664069l
7371002,DGA,dga_web,Agua Fria,560,-35.3131,-71.0983,73,Rio Maule,737,Rio Claro,1992-07-01,2017-02-28,8876,-,cl143c63trn57y391138a
7384002,DGA,dga_web,Constitucion,10,-35.3242,-72.4089,73,Rio Maule,738,Rio Maule Bajo,1992-07-01,2018-03-09,9195,2016-09-01,cl143c63sx033mw7fg5cn
7381003,DGA,dga_web,Pencahue,55,-35.3725,-71.8325,73,Rio Maule,738,Rio Maule Bajo,1976-07-01,2018-03-09,13228,2016-09-01,cl143c63syv2thm2jfe7e
7381002,DGA,dga_web,Fundo El Peral,110,-35.4006,-71.7833,73,Rio Maule,738,Rio Maule Bajo,1966-01-01,1986-06-30,7386,-,cl143c63sywe8bxcu53el
7383001,DGA,dga_web,Rio Maule En Forel,30,-35.4069,-72.2083,73,Rio Maule,738,Rio Maule Bajo,2001-05-01,2018-03-09,5909,2002-06-01,cl143c63swsf7ebemndjl
7370001,DGA,dga_web,Fundo El Radal,685,-35.4189,-71.0431,73,Rio Maule,737,Rio Claro,1992-07-01,2017-02-28,8820,-,cl143c63tqx25vzy3psel
7378004,DGA,dga_web,Talca,110,-35.4194,-71.6606,73,Rio Maule,737,Rio Claro,1964-01-01,2014-07-01,7070,2013-11-22,cl143c63tn92474crc14a
7378002,DGA,dga_web,Talca U.C.,130,-35.4358,-71.6197,73,Rio Maule,737,Rio Claro,1982-03-01,2018-03-09,13157,2016-09-01,cl143c63tn6m05s01539.
7379002,DGA,dga_web,Rio Claro En Rauquen,64,-35.4525,-71.7333,73,Rio Maule,737,Rio Claro,1999-02-01,2018-03-09,6945,2000-06-23,cl143c63syrdj6hyyxzmn
7374006,DGA,dga_web,Las Lomas,300,-35.4728,-71.2133,73,Rio Maule,737,Rio Claro,1969-09-01,1976-10-31,1857,-,cl143c63tq5w25cyfcd8s
7374005,DGA,dga_web,Huapi,250,-35.4864,-71.2931,73,Rio Maule,737,Rio Claro,1969-05-01,2017-02-28,17256,-,cl143c63tq1evuwreds4i
7376002,DGA,dga_web,El Durazno,275,-35.4925,-71.3183,73,Rio Maule,737,Rio Claro,1992-06-01,2017-02-28,8872,-,cl143c63tq14g95nmnt9o
7341002,DGA,dga_web,Nirivilo,200,-35.5389,-72.0914,73,Rio Maule,734,Perquilauquen Bajo,1956-02-01,2017-02-28,20647,-,cl143c63stzd2dusu5b7o
7374004,DGA,dga_web,Vilches Alto,1058,-35.5931,-71.0869,73,Rio Maule,737,Rio Claro,1992-07-06,2017-02-28,8861,-,cl143c63tmw2kp5jm80co
7359005,DGA,dga_web,San Javier,135,-35.595,-71.6572,73,Rio Maule,735,Rio Loncomilla,1970-01-01,2017-02-28,16942,-,cl143c63tj92hu45p429r
7359001,DGA,dga_web,Rio Loncomilla En Las Brisas,68,-35.6169,-71.7678,73,Rio Maule,735,Rio Loncomilla,2000-09-28,2018-03-09,6065,2000-09-28,cl143c63svquhk909etvs
7358008,DGA,dga_web,Colbun (Maule Sur),280,-35.6242,-71.4022,73,Rio Maule,735,Rio Loncomilla,1959-01-01,2017-02-28,20598,-,cl143c63tjr4y9bpuc9j)
7378003,DGA,dga_web,Colorado,420,-35.6381,-71.2606,73,Rio Maule,737,Rio Claro,1963-06-01,2017-02-28,19412,-,cl143c63tm62m958tku7o
7342002,DGA,dga_web,Huerta Del Maule,218,-35.6614,-71.9461,73,Rio Maule,734,Perquilauquen Bajo,1992-06-01,2017-02-28,8916,-,cl143c63sv4u43q35wcge
7320003,DGA,dga_web,Rio Claro En San Carlos,550,-35.6989,-71.0683,73,Rio Maule,736,Rio Maule Medio (Entre Rio Claro Y Rio Loncomilla),2015-06-01,2018-03-09,1009,2016-09-01,cl143c63tkyv1wuddwtqs
7320002,DGA,dga_web,Armerillo,492,-35.7011,-71.0772,73,Rio Maule,732,Rio Maule Medio,1916-06-01,2017-02-28,32158,-,cl143c63tkysg4j0w758o
7321001,DGA,dga_web,Maule Bajo,430,-35.7056,-71.3192,73,Rio Maule,732,Rio Maule Medio,1961-08-01,1985-01-30,2559,-,cl143c63tkc5fzy1wpd9o
7321002,DGA,dga_web,Rio Maule En Armerillo,470,-35.7061,-71.1139,73,Rio Maule,732,Rio Maule Medio,2001-06-01,2018-03-09,6104,2003-07-04,cl143c63tkvgbkyh8bgpo
7306001,DGA,dga_web,Rio Cipreses En Dasague Laguna La Invernada,1300,-35.7381,-70.7778,73,Rio Maule,730,Rio Maule Alto (Hasta Antes Junta Rio Melado),2015-04-16,2018-03-09,964,2015-04-16,cl143c63tstqj4mxr1tza
7340002,DGA,dga_web,La Estrella,200,-35.7825,-72.1869,73,Rio Maule,734,Perquilauquen Bajo,1992-06-01,2017-02-28,8886,-,cl143c63ssmmgpg6d11ba
7357003,DGA,dga_web,Melozal,96,-35.7856,-71.7664,73,Rio Maule,735,Rio Loncomilla,1950-09-01,2017-01-31,24074,-,cl143c63suqvmmc8tt46l
7303000,DGA,dga_web,Rio Maule En Los BaÑOs,980,-35.8197,-70.7606,73,Rio Maule,730,Rio Maule Alto (Hasta Antes Junta Rio Melado),2015-04-16,2018-03-09,1034,2015-04-16,cl143c63tsjz1xnebqtps
7358007,DGA,dga_web,Linares,157,-35.8381,-71.5953,73,Rio Maule,735,Rio Loncomilla,1967-01-01,2017-02-28,17071,-,cl143c63th4gcgutfyr6s
7358006,DGA,dga_web,Santa Barbara (Linares),150,-35.84,-71.6228,73,Rio Maule,735,Rio Loncomilla,1979-07-01,1983-10-31,1250,-,cl143c63th45tbggc82q)
7317001,DGA,dga_web,Rio Melado En La Lancha Dga,650,-35.85,-71.0667,73,Rio Maule,731,Rio Melado,1965-11-01,2003-03-31,13370,-,cl143c63tkncdy9gespua
7355006,DGA,dga_web,Hornillo,810,-35.8672,-71.1172,73,Rio Maule,735,Rio Loncomilla,1961-09-01,2017-02-28,20024,-,cl143c63t7vww43jk4n7o
7317005,DGA,dga_web,Rio Melado En El Salto,730,-35.8842,-71.0192,73,Rio Maule,731,Rio Melado,2003-04-01,2018-03-09,5360,2004-12-02,cl143c63t7zgmrksq31po
7337002,DGA,dga_web,Tutuven Embalse,179,-35.8967,-72.3736,73,Rio Maule,733,Perquilauquen Alto,1975-05-01,2017-02-28,14632,-,cl143c63sec15nsfh7wfe
7355002,DGA,dga_web,Rio Ancoa En El Morro,402,-35.9086,-71.2981,73,Rio Maule,735,Rio Loncomilla,1999-05-01,2018-03-09,6854,2003-02-12,cl143c63t79x431zg37oo
7355007,DGA,dga_web,Ancoa Embalse,421,-35.9106,-71.2958,73,Rio Maule,735,Rio Loncomilla,1957-07-01,2017-01-31,21052,-,cl143c63t79wevx6yqude
7352003,DGA,dga_web,Liguay,104,-35.9478,-71.6842,73,Rio Maule,735,Rio Loncomilla,1975-10-01,2017-02-28,14882,-,cl143c63t52zchvh6k75y
7301000,DGA,dga_web,Lo Aguirre,2000,-35.9697,-70.5719,73,Rio Maule,730,Rio Maule Alto,2013-07-01,2013-07-31,31,-,cl143c63tg65gj79cmd9e
7340003,DGA,dga_web,Los Huinganes En Curipeumo,126,-35.9844,-71.9122,73,Rio Maule,734,Perquilauquen Bajo,1994-06-01,2017-02-28,7863,-,cl143c63sg795psm9hzto
7301001,DGA,dga_web,Los Condores,2172,-36.0106,-70.5589,73,Rio Maule,730,Rio Maule Alto,2014-10-15,2017-01-12,765,2014-10-15,cl143c63tg4kkx43wgdcs
7335004,DGA,dga_web,Quella,130,-36.0572,-72.0892,73,Rio Maule,733,Perquilauquen Alto,1961-08-01,2018-03-09,20606,2016-09-01,cl143c63sdzefpxfsry5a
7353001,DGA,dga_web,Juan Amigo,460,-36.0758,-71.3908,73,Rio Maule,735,Rio Loncomilla,1992-06-01,2017-02-28,8878,-,cl143c63t4z2wg1z3nx9o
7352002,DGA,dga_web,La Sexta De Longavi,229,-36.1128,-71.6156,73,Rio Maule,735,Rio Loncomilla,1992-06-01,2018-03-09,9311,2016-09-01,cl143c63t4d3g5ew4hyki
7336003,DGA,dga_web,El Alamo,180,-36.1128,-72.4214,73,Rio Maule,733,Perquilauquen Alto,1994-05-01,2017-02-28,8218,-,cl143c63sd81b7en4hv7o
7345001,DGA,dga_web,Parral,175,-36.1878,-71.8283,73,Rio Maule,734,Perquilauquen Bajo,1964-01-01,2018-03-09,19787,2016-09-01,cl143c63sfjs0nz31se5l
7350001,DGA,dga_web,Rio Longavi En La Quiriquina,449,-36.2303,-71.4569,73,Rio Maule,735,Rio Loncomilla,2001-04-25,2018-03-09,5925,2001-04-25,cl143c63t1vuqxjw9d0va
8142001,DGA,dga_web,Mangarral,140,-36.2353,-72.3428,81,Rio Itata,814,Itata Bajo,1992-01-01,2017-03-31,9132,-,cl143c63s9cg9d4dd848l
7331002,DGA,dga_web,Digua Embalse,390,-36.2558,-71.5481,73,Rio Maule,733,Perquilauquen Alto,1947-10-01,2018-03-09,25268,2016-09-01,cl143c63t1ezu68mjbgde
7350006,DGA,dga_web,Bullileo Embalse,600,-36.285,-71.4142,73,Rio Maule,735,Rio Loncomilla,1930-05-01,2017-01-31,31500,-,cl143c63t1wftb898zyge
7314002,DGA,dga_web,Guayquivilo,1200,-36.2933,-70.9181,73,Rio Maule,731,Rio Melado,1960-04-01,1971-01-31,2614,-,cl143c63t9d1p00qxbtbo
7350007,DGA,dga_web,Embalse Bullileo (Lago),700,-36.2972,-71.4083,73,Rio Maule,735,Rio Loncomilla,2011-12-31,2015-09-07,1126,2011-12-31,cl143c63t1x0616p821q)
8118003,DGA,dga_web,Millauquen,152,-36.3183,-72.04,81,Rio Itata,811,Nuble Bajo,1992-02-01,2017-03-31,9060,-,cl143c63sc2sqnd64ts9n
7332003,DGA,dga_web,San Manuel En Perquilauquen,270,-36.3581,-71.6494,73,Rio Maule,733,Perquilauquen Alto,1956-06-01,2017-02-28,21761,-,cl143c63t11t4qxyzj7un
7330001,DGA,dga_web,Rio Perquilauquen En San Manuel,266,-36.3758,-71.6233,73,Rio Maule,733,Perquilauquen Alto,2009-10-01,2018-03-09,2788,2012-05-16,cl143c63t141vx85ksvyl
8118004,DGA,dga_web,San Agustin De Puual,138,-36.4214,-72.3944,81,Rio Itata,811,Nuble Bajo,1993-01-01,2017-03-31,8790,-,cl143c63s8b9sjbnyy7ml
8141001,DGA,dga_web,Rio Itata En Coelemu,27,-36.4669,-72.6911,81,Rio Itata,814,Itata Bajo,2009-05-09,2017-03-31,2585,2013-05-01,cl143c63s29c7uyt5k1mu
8141002,DGA,dga_web,Coelemu,40,-36.475,-72.6883,81,Rio Itata,814,Itata Bajo,1961-10-01,2017-03-31,18917,-,cl143c63s23zvvxz5jg6u
8140005,DGA,dga_web,Portezuelo,135,-36.5275,-72.4283,81,Rio Itata,814,Itata Bajo,2011-04-01,2017-03-31,2126,-,cl143c63s2py77fk3pj9o
8210002,DGA,dga_web,Dichato,11,-36.5456,-72.9311,82,Costeras E Islas Entre Rio Itata Y Rio Bio-Bio,821,Costeras Entre Rio Pingueral Y Rio Andalien,1980-06-01,2017-03-31,12996,-,cl143c63s0h7j4qnqk66o
8106003,DGA,dga_web,San Fabian,465,-36.5836,-71.5247,81,Rio Itata,810,Nuble Alto,1956-10-01,2017-03-31,21486,-,cl143c63mpukjm1dwjt9n
8106002,DGA,dga_web,Rio Uble En San Fabian N 2,450,-36.5856,-71.5256,81,Rio Itata,810,Nuble Alto,2001-06-14,2018-03-09,5799,2001-06-14,cl143c63mpu7u9ktz54t2
8117009,DGA,dga_web,Canal De La Luz En Chillan,136,-36.5967,-72.1003,81,Rio Itata,811,Nuble Bajo,2008-09-01,2018-03-09,3259,2012-12-05,cl143c63kxz3f0v0xtntn
8117003,DGA,dga_web,Chillan Sendos,125,-36.6147,-72.1,81,Rio Itata,811,Nuble Bajo,1964-01-01,1982-12-31,6923,-,cl143c63kxxq6rujpques
8117002,DGA,dga_web,Chillan Viejo,115,-36.6319,-72.1267,81,Rio Itata,811,Nuble Bajo,1977-01-01,2018-03-09,15040,2016-10-01,cl143c63kxweqgwnfkvdo
8140001,DGA,dga_web,Rafael,294,-36.6364,-72.8489,81,Rio Itata,814,Itata Bajo,1993-01-01,2017-03-31,8528,-,cl143c63kpw691985165l
8210003,DGA,dga_web,Estero Bellavista En Tom,7,-36.6394,-72.9503,82,Costeras E Islas Entre Rio Itata Y Rio Bio-Bio,821,Costeras Entre Rio Pingueral Y Rio Andalien,2009-06-01,2018-03-09,2917,2013-06-26,cl143c63kpefp0nbcc8rm
8113001,DGA,dga_web,Coihueco Embalse,314,-36.6408,-71.7989,81,Rio Itata,811,Nuble Bajo,1900-01-01,2017-02-28,16582,-,cl143c63kzw1txu7gf6ge
8105004,DGA,dga_web,Caracol,610,-36.6511,-71.395,81,Rio Itata,810,Nuble Alto,1900-01-01,2017-03-31,10767,-,cl143c63mprrgezgv2r6l
8135003,DGA,dga_web,Nueva Aldea,32,-36.6544,-72.4561,81,Rio Itata,813,Itata Medio,1956-09-01,2017-03-31,21406,-,cl143c63krrpr0dkxgpba
8105003,DGA,dga_web,La Punilla,840,-36.6583,-71.3278,81,Rio Itata,810,Nuble Alto,1959-04-01,1986-07-31,9763,-,cl143c63mr2ys9vv96w9a
8105005,DGA,dga_web,Caman,670,-36.6731,-71.2989,81,Rio Itata,810,Nuble Alto,1992-09-01,2017-03-31,8782,-,cl143c63mr3ecexnwv74n
8135004,DGA,dga_web,Cancha Los Litres,200,-36.7078,-72.5794,81,Rio Itata,813,Itata Medio,1993-01-01,2017-03-31,8278,-,cl143c63krhmt396hgehs
8133003,DGA,dga_web,Chillancito,56,-36.7622,-72.4239,81,Rio Itata,813,Itata Medio,1954-07-01,2017-03-31,22676,-,cl143c63kqzgws8v4p1bo
8220005,DGA,dga_web,Las Pataguas,236,-36.7925,-72.8922,82,Costeras E Islas Entre Rio Itata Y Rio Bio-Bio,822,Rio Andalien,1993-01-01,2017-03-31,8028,-,cl143c63kntq1s0suk8cs
8117006,DGA,dga_web,Rio Chillan En Esperanza N 2,586,-36.8,-71.6608,81,Rio Itata,811,Nuble Bajo,2009-05-01,2018-03-09,3194,2015-08-04,cl143c63mn9kf0qqf9kv2
8220006,DGA,dga_web,Andalien,37,-36.8131,-72.9392,82,Costeras E Islas Entre Rio Itata Y Rio Bio-Bio,822,Rio Andalien,2000-11-01,2017-03-31,5739,-,cl143c63kns4rk1ky8b7n
8394006,DGA,dga_web,Cerro Verde,10,-36.8161,-73.0722,83,Rio Bio-Bio,839,Rio Bio-Bio Bajo,1989-12-01,1995-12-31,2070,-,cl143c63kn91y6wmd91be
8410002,DGA,dga_web,Concepcion Edif. Mop,30,-36.8172,-73.0333,84,Costeras E Islas Entre Rios Bio-Bio Y Carampangue,841,Costeras Entre Rio Bio-Bio Y Rio Manco,2000-07-01,2006-04-30,2128,-,cl143c63knd1du2b2rrmp
8124005,DGA,dga_web,Mayulermo,371,-36.8189,-71.8944,81,Rio Itata,812,Rio Itata Alto (Hasta Rio Diguillin),1992-02-01,2017-03-31,9030,-,cl143c63kys124759f78o
8220008,DGA,dga_web,Estero Nonguen Frente U. Del Bio Bio,20,-36.8203,-73.0164,82,Costeras E Islas Entre Rio Itata Y Rio Bio-Bio,822,Rio Andalien,2009-05-01,2018-03-09,3069,2015-05-03,cl143c63knd3p44wd50zo
8410001,DGA,dga_web,Concepcion Dga.,28,-36.8333,-73.1,84,Costeras E Islas Entre Rios Bio-Bio Y Carampangue,841,Costeras Entre Rio Bio-Bio Y Rio Manco,1996-01-01,2018-03-09,8094,2016-10-01,cl143c63kn2wdnqx1r5f.
8394001,DGA,dga_web,Rio Biobio En Desembocadura,16,-36.8386,-73.0619,83,Rio Bio-Bio,839,Rio Bio-Bio Bajo,2001-03-30,2018-03-09,5666,2001-03-30,cl143c63kn3mtzw74z2ua
8131002,DGA,dga_web,Fundo Bella Rosa,210,-36.8672,-72.0667,81,Rio Itata,813,Itata Medio,1963-07-01,1968-10-31,1615,-,cl143c63ky20d8upv9tga
8130006,DGA,dga_web,Diguillin,670,-36.8686,-71.6425,81,Rio Itata,813,Itata Medio,1900-01-01,2017-03-31,21069,-,cl143c63mn38r8bfb478n
8130004,DGA,dga_web,Las Trancas,1242,-36.9108,-71.4792,81,Rio Itata,813,Itata Medio,1961-12-01,2017-03-31,19337,-,cl143c63mnj2w7jbjmtbs
8130003,DGA,dga_web,Fundo Atacalco,740,-36.9175,-71.5814,81,Rio Itata,813,Itata Medio,1930-10-01,2017-03-31,30654,-,cl143c63mjgpk5brpwdeo
8130002,DGA,dga_web,Rio Diguillin En San Lorenzo (Atacalco),727,-36.9244,-71.5756,81,Rio Itata,813,Itata Medio,2009-05-01,2018-03-09,3172,2016-10-01,cl143c63mjgq05z8uqkz)
8130007,DGA,dga_web,San Lorenzo,710,-36.9247,-71.5756,81,Rio Itata,813,Itata Medio,1961-10-01,2011-05-31,17690,-,cl143c63mjgq04p9h2ubo
8124003,DGA,dga_web,General Cruz,120,-36.9319,-72.3528,81,Rio Itata,812,Rio Itata Alto (Hasta Rio Diguillin),1962-07-01,1972-11-30,3704,-,cl143c63ktcsf21df51cz
8132002,DGA,dga_web,Pemuco,200,-36.9764,-72.1008,81,Rio Itata,813,Itata Medio,1971-08-31,2017-03-31,15747,-,cl143c63ktxk9uce6y75o
8393002,DGA,dga_web,Estero Hualqui En Desembocadura,30,-36.9825,-72.9414,83,Rio Bio-Bio,839,Rio Bio-Bio Bajo,2009-05-01,2018-03-09,2432,2015-05-01,cl143c63kjs5t9q4q46ya
8124004,DGA,dga_web,Las Cruces,467,-37.1114,-71.765,81,Rio Itata,812,Rio Itata Alto (Hasta Rio Diguillin),1993-01-01,2017-03-31,8721,-,cl143c63kuyun66m9eb9s
8123004,DGA,dga_web,Cholguan,230,-37.1528,-72.0669,81,Rio Itata,812,Rio Itata Alto (Hasta Rio Diguillin),1956-09-01,2017-03-31,19973,-,cl143c63ku8hd3r80e37n
8381003,DGA,dga_web,Rio Laja Ag.Arr. Del Salto (Rec.R.Laja),140,-37.2119,-72.3242,83,Rio Bio-Bio,838,Laja Bajo,2009-05-06,2018-03-09,2570,2012-08-19,cl143c63ks61z0gzpf0z)
8520000,DGA,dga_web,Caranpangue,10,-37.2553,-73.2431,85,Rio Carampangue,852,Rio Lia,2001-01-01,2017-03-31,5736,-,cl143c637uj3fh0hdr0be
8367001,DGA,dga_web,Laja,53,-37.2772,-72.7164,83,Rio Bio-Bio,836,Rio Bio-Bio Entre Rio Vergara Y Rio Laja,1961-11-01,2017-03-31,18750,-,cl143c63k7cmcs9460r3a
8122002,DGA,dga_web,Trupan,474,-37.2806,-71.8228,81,Rio Itata,812,Rio Itata Alto (Hasta Rio Diguillin),1963-06-01,2017-03-31,19368,-,cl143c63kgvtk0z2qww5n
8380001,DGA,dga_web,Rio Laja En Tucapel,295,-37.2836,-71.9836,83,Rio Bio-Bio,838,Laja Bajo,2001-06-01,2015-02-28,4726,-,cl143c63kgcuxpk91wbkl
8122003,DGA,dga_web,Tucapel,342,-37.2936,-71.9519,81,Rio Itata,812,Rio Itata Alto (Hasta Rio Diguillin),1975-01-01,2017-03-31,15290,-,cl143c63kgfdyjp1nf86l
8364001,DGA,dga_web,Las Achiras,144,-37.3806,-72.3661,83,Rio Bio-Bio,836,Rio Bio-Bio Entre Rio Vergara Y Rio Laja,1964-01-01,2017-03-31,18988,-,cl143c63ke370d5xhg7bs
8366002,DGA,dga_web,Estero Quilque En Los Angeles,144,-37.4561,-72.3272,83,Rio Bio-Bio,836,Rio Bio-Bio Entre Rio Vergara Y Rio Laja,2007-06-15,2017-03-31,3173,2007-06-15,cl143c63kdfjkfqhfu3ws
8700002,DGA,dga_web,Rio Curanilahue En Curanilahue,149,-37.4833,-73.3369,87,Rio Lebu,870,Rio Curanilahue,2012-06-14,2018-03-09,2083,2012-06-14,cl143c637fg0meyq7yjxe
8700001,DGA,dga_web,Curanilahue,146,-37.485,-73.3317,87,Rio Lebu,870,Rio Curanilahue,1997-07-01,2017-03-31,6998,-,cl143c637fg216p9931be
8700003,DGA,dga_web,Estero Plegarias Antes De Jta Rio Curanilahue,149,-37.4878,-73.3442,87,Rio Lebu,870,Rio Curanilahue,2009-05-13,2018-03-09,3031,2016-10-01,cl143c637fep83sr8dsze
8334002,DGA,dga_web,Los Angeles,129,-37.5022,-72.4083,83,Rio Bio-Bio,833,Rio Bio-Bio Entre Rio Duqueco Y Rio Vergara,1962-07-01,2018-02-18,20047,2016-10-01,cl143c63kd8kcvu74r0bs
8320001,DGA,dga_web,San Lorenzo En Bio-Bio,480,-37.5081,-71.7656,83,Rio Bio-Bio,832,Rio Duqueco,1992-08-01,2017-03-31,8580,-,cl143c63kfwgvgkr6h7po
8324001,DGA,dga_web,Duqueco,120,-37.5336,-72.3322,83,Rio Bio-Bio,832,Rio Duqueco,1961-11-01,1997-01-31,9954,-,cl143c63kd6p1qctfdb6o
8323001,DGA,dga_web,Rio Duqueco En Cerrillos,129,-37.5422,-72.3119,83,Rio Bio-Bio,832,Rio Duqueco,2009-05-01,2018-03-09,3058,2012-08-04,cl143c63kd6t8hfdemcrs
8334001,DGA,dga_web,Rio Biobio En Coihue,60,-37.5503,-72.5903,83,Rio Bio-Bio,833,Rio Bio-Bio Entre Rio Duqueco Y Rio Vergara,2009-10-01,2018-03-09,2858,2012-12-01,cl143c63k6khjmektpqme
8333002,DGA,dga_web,San Jose De Munilque,120,-37.5858,-72.3206,83,Rio Bio-Bio,833,Rio Bio-Bio Entre Rio Duqueco Y Rio Vergara,1955-04-01,1985-08-31,10807,-,cl143c63kd4m9wzgh1eme
8319002,DGA,dga_web,San Carlos De Puren,155,-37.5953,-72.2769,83,Rio Bio-Bio,831,Rio Bio-Bio Entre Rio Ranquil Y Rio Duqueco,1985-01-01,2017-03-31,11465,-,cl143c63kd57cxd0jhnkn
8319001,DGA,dga_web,Rio Biobio En Longitudinal,138,-37.6019,-72.2783,83,Rio Bio-Bio,831,Rio Bio-Bio Entre Rio Ranquil Y Rio Duqueco,2009-05-01,2017-04-03,1918,2012-06-28,cl143c63kd56b919c32tl
8316001,DGA,dga_web,Quillaileo,464,-37.6511,-71.7136,83,Rio Bio-Bio,831,Rio Bio-Bio Entre Rio Ranquil Y Rio Duqueco,1992-09-01,2017-03-31,8648,-,cl143c63m1b1gf2n2059o
8318002,DGA,dga_web,Quilaco,231,-37.685,-72.0058,83,Rio Bio-Bio,831,Rio Bio-Bio Entre Rio Ranquil Y Rio Duqueco,1900-01-01,2017-03-31,24701,-,cl143c63kc97wuzqb486o
8316002,DGA,dga_web,Rio Huequecura Aguas Arriba De Embalse Angostura,330,-37.7047,-71.7683,83,Rio Bio-Bio,831,Rio Bio-Bio Entre Rio Ranquil Y Rio Duqueco,2013-12-23,2018-03-09,1485,2013-12-23,cl143c63kcwb5fjqkzdza
8317005,DGA,dga_web,Rio Biobio En Puente Piulo,291,-37.7092,-71.8236,83,Rio Bio-Bio,831,Rio Bio-Bio Entre Rio Ranquil Y Rio Duqueco,2013-12-23,2018-03-09,1538,2013-12-23,cl143c63kcmx5xuzdhjto
8317001,DGA,dga_web,Rio Biobio En Rucalhue,261,-37.7106,-71.9017,83,Rio Bio-Bio,831,Rio Bio-Bio Entre Rio Ranquil Y Rio Duqueco,2001-03-29,2018-03-09,6082,2001-03-29,cl143c63kc7yfzbfwsdpe
8332002,DGA,dga_web,Mulchen,142,-37.7147,-72.2436,83,Rio Bio-Bio,833,Rio Bio-Bio Entre Rio Duqueco Y Rio Vergara,1962-01-01,2017-03-31,19992,-,cl143c63k9kn1zfn77r6n
8358002,DGA,dga_web,Angol (La Mona),113,-37.7794,-72.637200000000007,83,Rio Bio-Bio,835,Rios Malleco Y Vergara,1975-01-01,2018-03-09,13974,2017-04-01,cl143c63k3547pn96h9f)
8317003,DGA,dga_web,Cerro El Padre,346,-37.7797,-71.8664,83,Rio Bio-Bio,831,Rio Bio-Bio Entre Rio Ranquil Y Rio Duqueco,1943-05-01,2017-03-31,26928,-,cl143c63kchdkmr92pjee
8317004,DGA,dga_web,Rio Biobio En La Culebra,338,-37.7964,-71.6989,83,Rio Bio-Bio,831,Rio Bio-Bio Entre Rio Ranquil Y Rio Duqueco,2013-12-23,2018-03-09,1502,2013-12-23,cl143c63m0brqkn835zra
8821005,DGA,dga_web,Caete,78,-37.7983,-73.3914,88,Costeras Lebu-Paicavi,882,Rio Paicavi,1961-12-01,2017-12-03,19824,2016-10-01,cl143c637bczn0bqjvb4e
8821006,DGA,dga_web,Rio Leiva En Puente Camino A Contulmo,48,-37.8131,-73.3922,88,Costeras Lebu-Paicavi,882,Rio Paicavi,2009-05-06,2018-03-09,2995,2016-10-01,cl143c637bcum6tz30rzo
8358003,DGA,dga_web,El Vergel (Angol),75,-37.8172,-72.65,83,Rio Bio-Bio,835,Rios Malleco Y Vergara,1981-04-01,1996-02-29,5415,-,cl143c63k2fg9fu6cwvh)
8358005,DGA,dga_web,Parque Nahuelbuta,1177,-37.8233,-72.9606,83,Rio Bio-Bio,835,Rios Malleco Y Vergara,2002-11-07,2017-01-31,5023,-,cl143c63k0gdrxqcce0ha
8330002,DGA,dga_web,Pilguen,264,-37.8306,-72.2197,83,Rio Bio-Bio,833,Rio Bio-Bio Entre Rio Duqueco Y Rio Vergara,1992-08-01,2017-03-31,8632,-,cl143c63k8u95hz108g6n
8343001,DGA,dga_web,Rio Mininco En Longitudinal,125,-37.8636,-72.3942,83,Rio Bio-Bio,834,Rio Renaico,2013-08-01,2017-03-31,1337,-,cl143c63k88ehhsc7upul
8358004,DGA,dga_web,Poco A Poco,653,-37.88,-71.9867,83,Rio Bio-Bio,835,Rios Malleco Y Vergara,1992-08-01,2017-03-31,8899,-,cl143c63kb9bhvh21yrbo
8313002,DGA,dga_web,Embalse Pangue,512,-37.9183,-71.5961,83,Rio Bio-Bio,831,Rio Bio-Bio Entre Rio Ranquil Y Rio Duqueco,2007-06-01,2017-12-11,3764,2007-06-01,cl143c63m06c1mcuw3yee
8351003,DGA,dga_web,Collipulli,240,-37.9583,-72.4256,83,Rio Bio-Bio,835,Rios Malleco Y Vergara,1962-04-01,2009-12-31,16843,-,cl143c63k2pcvkchn2w9i
8351001,DGA,dga_web,Rio Malleco En Collipulli,153,-37.9647,-72.4361,83,Rio Bio-Bio,835,Rios Malleco Y Vergara,2010-02-01,2018-03-09,2915,2016-03-31,cl143c63k2p8txsdcp4si
8341003,DGA,dga_web,El Morro,300,-37.9972,-71.9972,83,Rio Bio-Bio,834,Rio Renaico,1955-08-01,1973-08-31,3774,-,cl143c63hzcdv4r8s9h7o
8822008,DGA,dga_web,Contulmo,41,-38.0186,-73.23,88,Costeras Lebu-Paicavi,882,Rio Paicavi,1900-01-01,2017-03-31,9945,-,cl143c635ztwgt976347o
9101003,DGA,dga_web,Tranaman,78,-38.0214,-73.0067,91,Rio Imperial,910,Rio Lumaco,1988-07-01,2017-03-31,10461,-,cl143c63hpdwqjk96fe7n
9101001,DGA,dga_web,Rio Puren En Tranaman,90,-38.0333,-73.0167,91,Rio Imperial,910,Rio Lumaco,2016-10-06,2018-03-09,505,2016-10-06,cl143c63hpdknzgx426on
8353001,DGA,dga_web,Ercilla (Vida Nueva),262,-38.0442,-72.4611,83,Rio Bio-Bio,835,Rios Malleco Y Vergara,1998-05-01,2017-03-31,6877,-,cl143c63hrx472mzpepm)
8312002,DGA,dga_web,Embalse Ralco,742,-38.0583,-71.4344,83,Rio Bio-Bio,831,Rio Bio-Bio Entre Rio Ranquil Y Rio Duqueco,2007-06-20,2018-03-09,2846,2007-06-20,cl143c63jpqrxn3fdtrdo
8308000,DGA,dga_web,Rio Lomin En Puente La Junta,755,-38.0661,-71.3497,83,Rio Bio-Bio,830,Rio Bio-Bio Alto (Hasta Despues Junta Rio Lamin),2013-06-04,2013-06-04,1,2013-06-04,cl143c63jr2qk8zkxssva
8343002,DGA,dga_web,Encimar Malleco,520,-38.1053,-72.1136,83,Rio Bio-Bio,834,Rio Renaico,1988-08-01,2017-02-28,10299,-,cl143c63hxpp0kx34x8fo
9102003,DGA,dga_web,Lumaco,60,-38.1636,-72.9039,91,Rio Imperial,910,Rio Lumaco,1948-05-01,2017-03-31,25017,-,cl143c63hnvh90bj2475o
8307002,DGA,dga_web,Rio Bio-Bio En Llanquen,767,-38.2008,-71.2989,83,Rio Bio-Bio,830,Rio Bio-Bio Alto (Hasta Despues Junta Rio Lamin),2003-02-01,2018-03-09,5048,2003-09-12,cl143c63jq9tc8pnwzgqn
8350002,DGA,dga_web,Laguna Malleco,894,-38.2156,-71.8106,83,Rio Bio-Bio,835,Rios Malleco Y Vergara,1955-10-01,2017-03-31,20852,-,cl143c63hytgj1gxzdmeo
9122003,DGA,dga_web,Tolhuaca,1350,-38.2358,-71.7197,91,Rio Imperial,912,Cautin Alto (Hasta Antes Junta R. Quepe),1971-06-01,1975-04-21,1027,-,cl143c63hyrzrk3f78s7a
9104003,DGA,dga_web,Las Mercedes (Victoria),421,-38.2461,-72.2289,91,Rio Imperial,910,Rio Lumaco,1986-01-01,2017-03-31,11378,-,cl143c63hwkms82dhwfq)
9105002,DGA,dga_web,Traiguen,234,-38.256100000000004,-72.6536,91,Rio Imperial,910,Rio Lumaco,1979-01-01,2017-03-31,13922,-,cl143c63hq6exq06j667n
8930000,DGA,dga_web,Tirua,10,-38.3433,-73.4922,89,Costeras E Islas Entre R.Paicavi Y Limite Region,893,Rio Tirua,2001-01-10,2017-03-31,5786,-,cl143c635tzeud5dgf44a
9113003,DGA,dga_web,Galvarino,40,-38.4133,-72.7772,91,Rio Imperial,911,R.  Chol Chol,1979-01-01,2017-03-31,13897,-,cl143c63hjrzj623f7z8o
9112000,DGA,dga_web,Perquenco,290,-38.4211,-72.3775,91,Rio Imperial,911,R.  Chol Chol,2002-05-01,2017-03-31,5448,-,cl143c63ht3j8kf5b7h8o
9123002,DGA,dga_web,Rari-Ruca,440,-38.425,-72.0106,91,Rio Imperial,912,Cautin Alto (Hasta Antes Junta R. Quepe),1992-07-01,2017-03-31,9016,-,cl143c63hv3kgqpkufe8a
9123001,DGA,dga_web,Rio Cautin En Rari-Ruca,425,-38.4303,-72.0106,91,Rio Imperial,912,Cautin Alto (Hasta Antes Junta R. Quepe),2001-06-09,2018-03-09,4762,2002-11-25,cl143c63hv37grr2ug5qa
9122001,DGA,dga_web,Curacautin,535,-38.4475,-71.8961,91,Rio Imperial,912,Cautin Alto (Hasta Antes Junta R. Quepe),1970-03-01,2017-03-31,16888,-,cl143c63hv7byg56w309n
8304004,DGA,dga_web,Lonquimay,931,-38.4536,-71.3742,83,Rio Bio-Bio,830,Rio Bio-Bio Alto (Hasta Despues Junta Rio Lamin),1987-05-01,2018-03-09,10997,2017-04-01,cl143c63jjpzdzs97j58y
9120002,DGA,dga_web,Manzanar,790,-38.4631,-71.6992,91,Rio Imperial,912,Cautin Alto (Hasta Antes Junta R. Quepe),1972-03-01,1988-09-25,5831,-,cl143c63jj0qn0pw3x37r
9111002,DGA,dga_web,Quillen,285,-38.4642,-72.3867,91,Rio Imperial,911,R.  Chol Chol,1959-11-01,2017-03-31,20905,-,cl143c63ht0vc9g9kms6n
9120003,DGA,dga_web,Malalcahuello,950,-38.4703,-71.5753,91,Rio Imperial,912,Cautin Alto (Hasta Antes Junta R. Quepe),1988-11-01,2018-03-09,10364,2017-04-01,cl143c63jj5k8qq8k1ddo
9114001,DGA,dga_web,La Cabaa,625,-38.4942,-73.2408,91,Rio Imperial,911,R.  Chol Chol,1988-10-01,2017-03-31,10315,-,cl143c635vj27ej9j287a
9124001,DGA,dga_web,Lautaro,200,-38.5186,-72.4522,91,Rio Imperial,912,Cautin Alto (Hasta Antes Junta R. Quepe),1953-07-01,2017-03-31,23045,-,cl143c63hkz7cuvks0c6o
9116002,DGA,dga_web,Cholchol,20,-38.6039,-72.8456,91,Rio Imperial,911,R.  Chol Chol,1987-10-01,2009-12-31,8100,-,cl143c63hhqk77yrrwx7l
9116001,DGA,dga_web,Rio Cholchol En Cholchol,20,-38.6081,-72.8478,91,Rio Imperial,911,R.  Chol Chol,2004-03-02,2018-03-09,5022,2004-03-16,cl143c63hhq79ge0x29rl
8301001,DGA,dga_web,Liucura,1043,-38.6517,-71.0919,83,Rio Bio-Bio,830,Rio Bio-Bio Alto (Hasta Despues Junta Rio Lamin),1987-05-01,2017-03-31,10493,-,cl143c63jkn78mw8vhx6a
9131002,DGA,dga_web,Vilcun,290,-38.6672,-72.2339,91,Rio Imperial,913,Rio Quepe,1965-02-01,2017-03-31,19015,-,cl143c63hsh2bghpkr65n
9130001,DGA,dga_web,Cherquenco,500,-38.6839,-72,91,Rio Imperial,913,Rio Quepe,1987-09-01,2017-03-31,10742,-,cl143c63hgctg1yqku19o
9129002,DGA,dga_web,Rio Cautin En Cajon,130,-38.6867,-72.5028,91,Rio Imperial,912,Cautin Alto (Hasta Antes Junta R. Quepe),2001-06-14,2018-03-09,5996,2004-01-01,cl143c63h7yjm1dk3vqkn
9129005,DGA,dga_web,Pueblo Nuevo (Temuco),119,-38.7128,-72.5558,91,Rio Imperial,912,Cautin Alto (Hasta Antes Junta R. Quepe),1953-07-01,2018-03-09,23068,2016-10-01,cl143c63h7ubw3x742co)
9151001,DGA,dga_web,Carahue,77,-38.7128,-73.1475,91,Rio Imperial,915,Rio Imperial,1995-06-01,2017-03-31,7668,-,cl143c635gz2x9eenbc6e
9129004,DGA,dga_web,Cerro Ielol,175,-38.7283,-72.5928,91,Rio Imperial,912,Cautin Alto (Hasta Antes Junta R. Quepe),1974-07-08,1989-02-28,5126,-,cl143c63h7sjex31t5fbl
9129006,DGA,dga_web,Temuco Centro,122,-38.7425,-72.59,91,Rio Imperial,912,Cautin Alto (Hasta Antes Junta R. Quepe),2009-11-17,2017-03-31,2569,-,cl143c63h7s5jsd6scmdo
9140002,DGA,dga_web,Almagro,20,-38.7775,-72.9506,91,Rio Imperial,914,Rio Cautin Entre Rio Quepe Y Rio Chol-Chol,1994-11-01,2004-10-31,3159,-,cl143c63h57uybxy4466o
9140001,DGA,dga_web,Rio Cautin En Almagro,20,-38.78,-72.9469,91,Rio Imperial,914,Rio Cautin Entre Rio Quepe Y Rio Chol-Chol,2004-02-01,2017-03-31,3931,-,cl143c63h5kh3dnh0croo
9153001,DGA,dga_web,Puerto Saavedra,5,-38.7886,-73.3936,91,Rio Imperial,915,Rio Imperial,1979-01-01,2017-03-31,13625,-,cl143c635g3fu2j0vk6fa
9400000,DGA,dga_web,Rio Truful En Camino Internacional,520,-38.8444,-71.6536,94,Rio Tolten,940,Rio Allipen,2015-01-01,2018-03-09,1113,2015-12-19,cl143c63j512x6yp527zl
9401001,DGA,dga_web,Tricauco,520,-38.8506,-71.55,94,Rio Tolten,940,Rio Allipen,1988-10-01,2017-03-31,10206,-,cl143c63j4gz6yu5jpg7o
9402001,DGA,dga_web,Rio Allipen En Melipeuco,450,-38.8653,-71.7336,94,Rio Tolten,940,Rio Allipen,2011-09-01,2015-06-21,222,-,cl143c63hfzsv1jyzncro
9403001,DGA,dga_web,Cunco,380,-38.9269,-72.0125,94,Rio Tolten,940,Rio Allipen,1970-03-01,2017-03-31,16340,-,cl143c63hf93d475uhe4o
9135002,DGA,dga_web,Freire,100,-38.9553,-72.6206,91,Rio Imperial,913,Rio Quepe,1939-07-01,1973-12-31,9289,-,cl143c63h67krkcmgbh5e
9404002,DGA,dga_web,Los Laureles,260,-38.9586,-72.2006,94,Rio Tolten,940,Rio Allipen,1939-02-01,2017-03-31,26385,-,cl143c63hdm5c1snddgcs
9135003,DGA,dga_web,Freire Sendos,100,-38.9592,-72.6083,91,Rio Imperial,913,Rio Quepe,1981-01-01,2017-03-31,12965,-,cl143c63h67g8npyxrwds
9135004,DGA,dga_web,Freire Campamento Fiscal,100,-38.9667,-72.6264,91,Rio Imperial,913,Rio Quepe,1969-05-23,1981-12-31,3539,-,cl143c63h67674d0xh7rl
9404001,DGA,dga_web,Rio Allipen En Los Laureles,190,-38.9833,-72.2333,94,Rio Tolten,940,Rio Allipen,2017-02-16,2018-03-09,387,2017-02-16,cl143c63hdhr33f45twus
9404003,DGA,dga_web,Quecheregua,360,-39.0006,-72.0667,94,Rio Tolten,940,Rio Allipen,1970-02-01,2014-01-31,15359,-,cl143c63hf0h4th1jwvba
9437002,DGA,dga_web,Rio Tolten En Teodoro Schmidt,15,-39.0144,-73.0828,94,Rio Tolten,943,Tolten Bajo,2004-03-02,2018-03-09,4334,2004-07-08,cl143c63h40cwsxkdwgwt
9438001,DGA,dga_web,Teodoro Schmitd,13,-39.0278,-73.0781,94,Rio Tolten,943,Tolten Bajo,1988-11-01,2017-03-31,10011,-,cl143c63h1cp4nsfg0tfd
9405001,DGA,dga_web,Rio Curaco En Colico,250,-39.0333,-72.0833,94,Rio Tolten,940,Rio Allipen,2014-03-26,2017-03-31,617,-,cl143c63h9zwnw937zfmo
9423001,DGA,dga_web,Rio Tolten En Coipue,200,-39.1,-72.3833,94,Rio Tolten,942,Lago Villarica Y Rio Tolten Alto (Antes  Allipen),2015-01-01,2018-03-09,1032,2016-10-31,cl143c63h98fh1fzewgme
9433003,DGA,dga_web,Quitratue,90,-39.1506,-72.6503,94,Rio Tolten,943,Tolten Bajo,1961-11-01,2017-03-31,19873,-,cl143c63h36bcejr1yp8e
9416002,DGA,dga_web,Lago Tinquilco,850,-39.1667,-71.7231,94,Rio Tolten,941,Rio Pucon,1996-06-01,2017-03-31,7454,-,cl143c63hcpvuv6tumueo
9417001,DGA,dga_web,Lago Caburgua,480,-39.2,-71.8089,94,Rio Tolten,941,Rio Pucon,1976-11-21,2017-03-31,11296,-,cl143c63hbvzy77q779da
9439001,DGA,dga_web,Tolten,5,-39.2006,-73.2003,94,Rio Tolten,943,Tolten Bajo,1994-12-01,2017-03-31,7971,-,cl143c635byr9pvqs285n
9420003,DGA,dga_web,Villarrica,210,-39.215,-72.2917,94,Rio Tolten,942,Lago Villarica Y Tolten Alto,1961-11-01,2017-03-31,19979,-,cl143c63h8fvnu161t09a
9417002,DGA,dga_web,Ojos Del Caburgua,300,-39.2367,-71.8356,94,Rio Tolten,941,Rio Pucon,1998-05-01,2009-03-31,3250,-,cl143c63hbv34vthyrdha
